Code,Name,Type,Latitude,Longitude,Sector,Open/Closed,State,Local_Hospital_Network_(LHN),Primary_Health_Network_area_(PHN),Min_Beds,Max_Beds,Website,Elective_Surgery_High_Level,Elective_Surgery_Low_Level,Establishment_ID,Medicare_provider_no,Network_code,Hospital_Network,Remoteness_area,Number_of_available_beds,Peer_group_name,Establishments_data,Morbidity_data,Emergency_department_data,Elective_Surgery_Waiting_times_data,Non_admitted_patient_aggregate_data,IHPA_funding_designation,Phone_number,Street_address,Suburb,Postcode
H0012,State Forensic Mental Health Service,Hospital,-31.960937,115.788431,Public,Open,Western Australia,North Metropolitan Health Service (WA),Perth North,50,50,www.health.wa.gov.au/services/detail.cfm?Unit_ID=71,,,1117C1010,0012860K,119,Justice Health & Forensic Mental Health,Major Cities,0,Unknown,Yes,Yes,No,No,Yes,Funding not designated/Unknown,08 9347 6960,Brockway Road,Mount Claremont,6010
H0049,Illawarra Mental Health Services,Hospital,-34.42623,150.891252,Public,Open,New South Wales,Illawarra Shoalhaven,South Eastern NSW,0,0,,,,1173P2170,0,108,Illawarra Shoalhaven,Major Cities,0,Unpeered,Yes,No,No,No,No,Block-funded hospital,,,,2500
H0095,Bulahdelah Hospital,Hospital,-32.403949,152.210029,Public,Open,New South Wales,Hunter New England,Hunter New England and Central Coast,50,50,,,,1180J2230,0010840J,109,Hunter New England,Inner Regional,0,Very small,Yes,No,Yes,No,Yes,Block-funded hospital,02 4987 9900,Richmond Street,Bulahdelah,2423
H0117,Bonalbo Hospital,Hospital,-28.733777,152.622789,Public,Open,New South Wales,Northern NSW,North Coast,50,50,,,,1181H2070,0010760J,111,Northern NSW,Outer Regional,0,Public acute group D,Yes,Yes,No,No,Yes,Block-funded hospital,02 6665 1203,Clarence Way,Bonalbo,2469
H0273,Bendigo Health Care Group [Anne Caudle],Hospital,-36.750919,144.280399,Public,Open,Victoria,Bendigo Health Care Group,Murray,50,99,www.bendigohealth.com.au,,,210301022,0,210,Bendigo Health Care Group,Inner Regional,0,Mixed subacute and non-acute,Yes,No,No,No,Yes,Activity-based funded hospital,03 5454 6000,100 Barnard Street,Bendigo,3550
H0281,Swan Hill District Health [Nyah],Hospital,-35.186052,143.355428,Public,Open,Victoria,Swan Hill District Health,Murray,50,50,,,,210301492,0,212,Swan Hill District Health,Outer Regional,0,Very small,Yes,No,No,No,No,Activity-based funded hospital,03 5030 2572,Monash Avenue,Nyah West,3595
H0577,McLaren Vale & Districts War Memorial Hospital Inc,Hospital,-35.221405,138.544962,Public,Open,South Australia,Country Health SA,Adelaide,50,50,www.mclarenvalehospital.com.au,,,41MO00036,0,404,Country Health SA,Major Cities,0,Public acute group D,Yes,Yes,No,No,No,Activity-based funded hospital,08 8323 6600,3 Aldersey Street,McLaren Vale,5171
H0677,Dumbleyung Memorial Hospital,Hospital,-33.310409,117.740499,Public,Open,Western Australia,WA Country Health Service,Country WA,50,50,www.health.wa.gov.au/services/detail.cfm?Unit_ID=50,,,510700408,0070270X,503,WA Country Health Service,Remote,0,Very small,Yes,Yes,No,No,Yes,Block-funded hospital,08 9863 5222,Mcintyre Street,Dumbleyung,6350
H0752,Karratha Health Campus,Hospital,-20.732208,116.839511,Public,Open,Western Australia,WA Country Health Service,Country WA,0,0,,"Ear, nose and throat surgery,General surgery,Gynaecology,Ophthalmology,Orthopaedic surgery,Other surgery,Plastic surgery,","Anal fissure - repair of,Anterior cruciate ligament reconstruction,Arthroscopy,Bartholin's cyst - removal of,Carpal tunnel release,Cataract extraction (with or without intra-ocular lens insertion),Cholecystectomy (open/laparoscopic),Circumcision,Cystoscopy,Ectropion - correction of,Endometrial ablation,Female sterilisation,Ganglion - excision of,Haemorrhoidectomy,Herniorrhaphy,Hydrocele - repair of,Hysterectomy (abdominal/vaginal/laparoscopic),Hysteroscopy, dilatation and curettage,Inguinal herniotomy/herniorrhaphy,Laparoscopy,Large loop excision of the transformation zone cervix (LLETZ),Myringoplasty/tympanoplasty,Myringotomy,Myringotomy (without insertion of grommets),Orchidectomy,Pilonidal sinus surgery,Pterygium - excision of,Rotator cuff - repair of,Salpingo-oophorectomy/oophorectomy/ovarian cystectomy,Scar revision,Shoulder reconstruction,Skin lesion - excision of,Thyroidectomy/hemi-thyroidectomy,Toenail surgery,Vaginal repair - anterior/posterior,Varicose veins treatment,",510500132,0071540F,503,WA Country Health Service,Remote,0,Public acute group C,Yes,Yes,Yes,Yes,Yes,Activity-based funded hospital,,,,
H0753,Northern Beaches Hospital,Hospital,-33.750646,151.23377,Public,Open,New South Wales,Northern Sydney,Northern Sydney,0,0,,"Cardio-thoracic surgery,Ear, nose and throat surgery,General surgery,Gynaecology,Orthopaedic surgery,Paediatric surgery,Plastic surgery,Urology,","Acromioplasty/arthroscopy shoulder/sub acromial decompression,Adenoidectomy,Anal fissure - repair of,Anterior cruciate ligament reconstruction,Arthrodesis,Arthroscopy,Bartholin's abscess drainage,Breast lump - excision and/or biopsy,Breast prosthesis - removal of,Bunion (hallux valgus) - removal of,Carpal tunnel release,Cholecystectomy (open/laparoscopic),Circumcision,Colectomy/anterior resection/large bowel resection,Curettage and evacuation of uterus,Cystoscopy,Dialysis access surgery,Dupytren's contracture release,Endometrial ablation,Epididymal cyst - removal of,Female sterilisation,Fracture non-union - treatment of,Functional endoscopic sinus surgery,Ganglion - excision of,Haemorrhoidectomy,Hammer/claw/mallet toe - correction of,Herniorrhaphy,Hydrocele - repair of,Hysterectomy (abdominal/vaginal/laparoscopic),Hysteroscopy, dilatation and curettage,Inguinal herniotomy/herniorrhaphy,Laparoscopy,Large loop excision of the transformation zone cervix (LLETZ),Lingual or maxillary frenulum surgery,Lithotripsy,Mastectomy,Mastoidectomy,Meniscectomy,Microlaryngoscopy,Muscle or tendon length - change of,Myomectomy,Myringoplasty/tympanoplasty,Myringotomy,Myringotomy (without insertion of grommets),Nasal polypectomy,Nasendoscopy,Nerve decompression,Osteotomy,Parotidectomy/submandibular gland - excision of,Pilonidal sinus surgery,Pressure equalising tubes (grommets) - insertion of,Prostate biopsy,Prostatectomy (transurethral or open),Repair of obstructing hiatus hernia,Rhinoplasty,Rotator cuff - repair of,Salpingo-oophorectomy/oophorectomy/ovarian cystectomy,Scar revision,Septoplasty,Shoulder joint replacement,Shoulder reconstruction,Skin lesion - excision of,Stone/s urinary tract - removal of,Tendon release,Thyroidectomy/hemi-thyroidectomy,Toenail surgery,Tonsillectomy (with or without adenoidectomy),Total hip replacement,Total knee replacement,Trigger finger/thumb release,Turbinectomy,Ureteric stent - insertion of,Vaginal repair - anterior/posterior,Varicose veins treatment,",1276B3590,0017590Y,106,Northern Sydney,Major Cities,0,Public acute group A,Yes,Yes,Yes,Yes,No,Funding not designated/Unknown,,,,
H1016,Goodooga Health Service,Hospital,-29.110249,147.456114,Public,Open,New South Wales,Western NSW,Western NSW,50,50,,,,1185K2140,0011260Y,112,Western NSW,Very remote,0,Outpatient hospital,Yes,No,No,No,Yes,Block-funded hospital,02 6829 6311,49 Hammond Street,Goodooga,2831
H1018,Ivanhoe Hospital,Hospital,-32.898193,144.298904,Public,Open,New South Wales,Far West,Western NSW,50,50,,,,1186S2020,0011490H,115,Far West,Very remote,0,Outpatient hospital,Yes,No,Yes,No,Yes,Block-funded hospital,02 6990 2200,11 Columbus Street,Ivanhoe,2878
H1024,Menindee Health Service,Hospital,-32.390335,142.414869,Public,Open,New South Wales,Far West,Western NSW,50,50,,,,1186K1010,0,115,Far West,Very remote,0,Outpatient hospital,Yes,No,Yes,No,Yes,Block-funded hospital,08 8091 4209,Perry Street,Menindee,2879
H1034,Sydney Dental Hospital,Hospital,-33.884469,151.207811,Public,Open,New South Wales,South Eastern Sydney,Central and Eastern Sydney,50,50,www.sswahs.nsw.gov.au/sydneydentalhospital,,,1170C1530,0,102,Sydney,Major Cities,0,Unpeered,Yes,No,No,No,Yes,Block-funded hospital,02 9293 3200,2 Chalmers Street,Surry Hills,2010
H1038,Tibooburra Health Service,Hospital,-29.433211,142.012817,Public,Open,New South Wales,Far West,Western NSW,50,50,,,,1186S2030,0012120B,115,Far West,Very remote,0,Outpatient hospital,Yes,No,Yes,No,Yes,Block-funded hospital,,,,
H0035,Gower Wilson Multi Purpose Service,Hospital,-31.535603,159.071307,Public,Open,New South Wales,South Eastern Sydney,Central and Eastern Sydney,50,50,www.seslhd.health.nsw.gov.au/Health_Services/LordHoweIsland.asp,,,1172C2050,0011290T,101,South Eastern Sydney,Very remote,0.1,Very small,Yes,Yes,No,No,Yes,Block-funded hospital,02 6563 2000,Lagoon Road,Lord Howe Island,2898
H0687,Wyalkatchem-Koorda and Districts Hospital,Hospital,-31.176246,117.386212,Public,Open,Western Australia,WA Country Health Service,Country WA,50,50,www.health.wa.gov.au/services/detail.cfm?Unit_ID=194,,,510700438,0070790W,503,WA Country Health Service,Outer Regional,1.2,Very small,Yes,Yes,No,No,Yes,Block-funded hospital,08 9692 1222,Honour Avenue,Wyalkatchem,6485
H0296,East Wimmera Health Service [Charlton],Hospital,-36.271037,143.345889,Public,Open,Victoria,East Wimmera Health Service,Murray,50,50,www.ewhs.org.au,,,210304130,0,205,East Wimmera Health Service,Outer Regional,2,Very small,Yes,Yes,No,No,No,Block-funded hospital,03 5477 6800,4 Menzies Street,Charlton,3525
H0653,Paraburdoo Hospital,Hospital,-23.203031,117.670633,Public,Open,Western Australia,WA Country Health Service,Country WA,50,50,www.health.wa.gov.au/services/detail.cfm?Unit_ID=254,,,510500267,0071240W,503,WA Country Health Service,Very remote,2,Very small,Yes,Yes,No,No,Yes,Block-funded hospital,08 9159 8222,Lot 608 Rocklea Road,Paraburdoo,6754
H5443,Tasman Health Care Day Infusion Unit,Hospital,-27.970409,153.407806,Private,Open,Queensland,,,0,0,,,,611000061,0,604,0,Outer Regional,2,Very small,Yes,Yes,No,No,No,Block-funded hospital,,,,
H0664,Dongara Eneabba Mingenew Health Service,Hospital,-29.265173,114.934179,Public,Open,Western Australia,WA Country Health Service,Country WA,50,50,www.health.wa.gov.au/services/detail.cfm?Unit_ID=226,,,510600476,0071570Y,503,WA Country Health Service,Outer Regional,2.3,Very small,Yes,Yes,No,No,Yes,Block-funded hospital,08 9927 0200,48 Blenheim Road,Dongara,6525
H0695,Denmark Hospital and Health Service,Hospital,-34.957977,117.353489,Public,Open,Western Australia,WA Country Health Service,Country WA,50,50,www.health.wa.gov.au/services/detail.cfm?Unit_ID=46,,,510900214,0070240B,503,WA Country Health Service,Outer Regional,2.7,Public acute group D,Yes,Yes,No,No,Yes,Block-funded hospital,08 9848 0600,50 Scotsdale Road,Denmark,6333
H0447,Mungindi Hospital,Hospital,-28.972817,148.989061,Public,Open,Queensland,South West (Qld),Western Queensland,50,50,www.health.qld.gov.au/services/southwest/swest_mungin_hosp.asp,,,310000117,0,326,South West (Qld),Remote,3,Public acute group D,Yes,Yes,No,No,Yes,Block-funded hospital,02 6705 6100,Barwon Street,Mungindi,2406
H0459,Moura Hospital,Hospital,-24.575948,149.975999,Public,Open,Queensland,Central Queensland,"Central Queensland, Wide Bay and Sunshine Coast",50,50,www.health.qld.gov.au/services/central-queensland/moura.asp,,,310000140,0,316,Central Queensland,Outer Regional,3,Public acute group D,Yes,Yes,No,No,Yes,Block-funded hospital,07 4997 2900,14 Nott Street,Moura,4718
H0674,Corrigin Hospital,Hospital,-32.324419,117.878816,Public,Open,Western Australia,WA Country Health Service,Country WA,50,50,www.health.wa.gov.au/services/detail.cfm?Unit_ID=43,,,510700404,0070190X,503,WA Country Health Service,Remote,3,Very small,Yes,Yes,No,No,Yes,Block-funded hospital,08 9063 0333,49 Kirkwood Street,Corrigin,6375
H0680,Kondinin Hospital,Hospital,-32.488949,118.265439,Public,Open,Western Australia,WA Country Health Service,Country WA,50,50,www.health.wa.gov.au/services/detail.cfm?Unit_ID=94,,,510700413,0070420Y,503,WA Country Health Service,Remote,3,Very small,Yes,Yes,No,No,Yes,Block-funded hospital,,,,
H0683,Narembeen Memorial Hospital,Hospital,-32.061618,118.391289,Public,Open,Western Australia,WA Country Health Service,Country WA,50,50,www.health.wa.gov.au/services/detail.cfm?Unit_ID=127,,,510700423,0070590B,503,WA Country Health Service,Remote,3,Very small,Yes,Yes,No,No,Yes,Block-funded hospital,08 9064 6222,Ada Street,Narembeen,6369
H0689,Esperance Hospital,Hospital,-33.856188,121.892205,Public,Open,Western Australia,WA Country Health Service,Country WA,50,50,www.health.wa.gov.au/services/detail.cfm?Unit_ID=55,"Ear, nose and throat surgery,General surgery,Gynaecology,Ophthalmology,Orthopaedic surgery,Other surgery,Urology,","Acromioplasty/arthroscopy shoulder/sub acromial decompression,Adenoidectomy,Anterior cruciate ligament reconstruction,Arthroscopy,Blepharoplasty,Carpal tunnel release,Cataract extraction (with or without intra-ocular lens insertion),Cholecystectomy (open/laparoscopic),Circumcision,Curettage and evacuation of uterus,Cystoscopy,Dupytren's contracture release,Ectropion - correction of,Haemorrhoidectomy,Herniorrhaphy,Hydrocele - repair of,Hysteroscopy, dilatation and curettage,Inguinal herniotomy/herniorrhaphy,Large loop excision of the transformation zone cervix (LLETZ),Myringoplasty/tympanoplasty,Osteotomy,Pilonidal sinus surgery,Prostate biopsy,Pterygium - excision of,Rotator cuff - repair of,Skin lesion - excision of,Toenail surgery,Trigger finger/thumb release,",611000060,0,604,0,Outer Regional,3,Very small,Yes,Yes,No,No,No,Block-funded hospital,08 9071 0888,Hicks Street,Esperance,6450
H0692,Leonora Hospital,Hospital,-28.894319,121.337492,Public,Open,Western Australia,WA Country Health Service,Country WA,50,50,www.health.wa.gov.au/services/detail.cfm?Unit_ID=107,,,510800273,0070460L,503,WA Country Health Service,Very remote,3.4,Very small,Yes,Yes,No,No,Yes,Block-funded hospital,08 9080 4300,Sadie Canning Drive,Leonora,6438
H0661,Northampton Kalbarri Health Service,Hospital,-28.351194,114.635119,Public,Open,Western Australia,WA Country Health Service,Country WA,50,50,www.health.wa.gov.au/services/detail.cfm?Unit_ID=138,,,510600425,0070640J,503,WA Country Health Service,Outer Regional,3.7,Very small,Yes,Yes,No,No,Yes,Block-funded hospital,08 9934 0200,Stephen Street,Northampton,6535
H0678,Kellerberrin Memorial Hospital,Hospital,-31.628902,117.716531,Public,Open,Western Australia,WA Country Health Service,Country WA,50,50,www.health.wa.gov.au/services/detail.cfm?Unit_ID=89,,,510700409,0070390K,503,WA Country Health Service,Outer Regional,3.9,Very small,Yes,Yes,No,No,Yes,Block-funded hospital,08 9045 6222,51-63 Gregory Street,Kellerberrin,6410
H0194,Gulgong Multi Purpose Service,Hospital,-32.366871,149.521893,Public,Open,New South Wales,Western NSW,Western NSW,0,0,,,,1185K2150,0011350X,112,Western NSW,Outer Regional,4,Outpatient hospital,Yes,Yes,Yes,No,Yes,Block-funded hospital,02 6374 3400,34 Goolma Road,Gulgong,2852
H0216,Peak Hill Multipurpose Service,Hospital,-32.735907,148.199615,Public,Open,New South Wales,Western NSW,Western NSW,50,50,,,,1185L2180,0011950W,112,Western NSW,Outer Regional,4,Very small,Yes,Yes,Yes,No,Yes,Block-funded hospital,02 6861 7100,111 Newell Highway,Peak Hill,2869
H0237,Otway Health & Community Services [Apollo Bay],Hospital,-38.753853,143.664264,Public,Open,Victoria,Otway Health and Community Services (Apollo Bay),Western Victoria,50,50,www.swarh.com.au/otway,,,210102020,0,230,Otway Health and Community Services (Apollo Bay),Inner Regional,4,Very small,Yes,Yes,No,No,No,Block-funded hospital,03 5237 8500,37-43 Mclachlan Street,Apollo Bay,3233
H0247,Lorne Community Hospital,Hospital,-38.545513,143.980743,Public,Open,Victoria,Lorne Community Hospital,Western Victoria,50,50,lch.org.au,,,210102550,0,232,Lorne Community Hospital,Inner Regional,4,Public acute group D,Yes,Yes,No,No,No,Block-funded hospital,03 5289 4300,1 Albert Street,Lorne,3232
H0254,Rural Northwest Health [Hopetoun],Hospital,-35.732201,142.366411,Public,Open,Victoria,Rural Northwest Health (Vic),Western Victoria,50,50,www.rnh.net.au,,,210201572,0,274,Rural Northwest Health (Vic),Outer Regional,4,Very small,Yes,Yes,No,No,No,Block-funded hospital,03 5083 2000,12 Mitchell Place,Hopetoun,3396
H0262,West Wimmera Health Service [Jeparit],Hospital,-36.141132,141.984686,Public,Open,Victoria,West Wimmera Health Service,Western Victoria,50,50,www.wwhs.net.au/,,,210202373,0,277,West Wimmera Health Service,Outer Regional,4,Very small,Yes,Yes,No,No,No,Block-funded hospital,03 5391 4222,2 Charles Street,Jeparit,3423
H0267,Dimboola District Hospital,Hospital,-36.449887,142.024286,Public,Open,Victoria,Wimmera Health Care Group,Western Victoria,50,50,,,,210203180,0,275,Wimmera Health Care Group,Outer Regional,4,Public acute group D,Yes,Yes,No,No,No,Activity-based funded hospital,03 5389 1301,32-36 Anderson Street,Dimboola,3414
H0278,Maryborough District Health Service [Maryborough],Hospital,-37.044781,143.737692,Public,Open,Victoria,Maryborough District Health Service,Western Victoria,50,50,,,,210301352,0,207,Maryborough District Health Service,Inner Regional,4,Very small,Yes,Yes,No,No,No,Activity-based funded hospital,03 5461 0333,75-87 Clarendon Street,Maryborough,3465
H0287,Mallee Track Health & Community Service [Ouyen],Hospital,-35.074349,142.312345,Public,Open,Victoria,Mallee Track Health and Community Service,Murray,50,50,,,,210302390,0,280,Mallee Track Health and Community Service,Outer Regional,4,Very small,Yes,Yes,No,No,Yes,Block-funded hospital,03 5092 1111,28 Britt Street,Ouyen,3490
H0288,Maldon Hospital,Hospital,-36.992672,144.063677,Public,Open,Victoria,Maldon Hospital,Murray,50,50,www.maldon.org.au,,,210302590,0,216,Maldon Hospital,Inner Regional,4,Very small,Yes,Yes,No,No,No,Block-funded hospital,03 5475 2000,Chapel Street,Maldon,3463
H0322,Omeo District Health,Hospital,-37.098142,147.597321,Public,Open,Victoria,Omeo District Health,Gippsland,50,50,www.gha.net.au/odh,,,210502040,0,258,Omeo District Health,Outer Regional,4,Very small,Yes,Yes,No,No,Yes,Block-funded hospital,03 5159 0100,12 Easton Street,Omeo,3898
H0414,Eidsvold Hospital,Hospital,-25.382639,151.125494,Public,Open,Queensland,Wide Bay,"Central Queensland, Wide Bay and Sunshine Coast",50,50,www.health.qld.gov.au/services/widebay/wb-eidsvold.asp,,,310000065,0,318,Wide Bay,Outer Regional,4,Public acute group D,Yes,Yes,No,No,Yes,Block-funded hospital,07 4165 7100,Cracow Road,Eidsvold,4627
H0441,Augathella Hospital,Hospital,-25.796104,146.590919,Public,Open,Queensland,South West (Qld),Western Queensland,50,50,www.health.qld.gov.au/services/southwest/swest_auga_hosp.asp,,,310000111,0,326,South West (Qld),Very remote,4,Very small,Yes,Yes,No,No,Yes,Block-funded hospital,07 4656 7100,Cavanagh Street,Augathella,4477
H0451,Surat Hospital,Hospital,-27.156595,149.063787,Public,Open,Queensland,South West (Qld),Western Queensland,50,50,www.health.qld.gov.au/services/southwest/swest_surat_hosp.asp,,,310000121,0,326,South West (Qld),Remote,4,Public acute group D,Yes,Yes,No,No,Yes,Block-funded hospital,07 4626 5166,Ivan Street,Surat,4417
H0452,Alpha Hospital,Hospital,-23.649039,146.632962,Public,Open,Queensland,Central West (Qld),Western Queensland,0,0,,,,310000131,0,317,Central West (Qld),Very remote,4,Very small,Yes,Yes,No,No,Yes,Block-funded hospital,07 4809 7000,Gordon Street,Alpha,4724
H0558,Karoonda and District Soldiers' Memorial Hospital,Hospital,-35.094226,139.889429,Public,Open,South Australia,Country Health SA,Country SA,50,50,www.sahealth.sa.gov.au/karoondahospital,,,41HM00118,0,404,Country Health SA,Outer Regional,4,Very small,Yes,Yes,No,No,Yes,Block-funded hospital,08 8579 1111,13 Stokes Road,Karoonda,5307
H0572,Laura and District Hospital,Hospital,-33.174925,138.298687,Public,Open,South Australia,Country Health SA,Country SA,50,50,www.sahealth.sa.gov.au/laurahospital,,,41MN00130,0,404,Country Health SA,Outer Regional,4,Very small,Yes,Yes,No,No,Yes,Block-funded hospital,08 8663 2568,Mill Street,Laura,5480
H0579,Hawker Memorial Hospital,Hospital,-31.893389,138.427841,Public,Open,South Australia,Country Health SA,Country SA,50,50,www.sahealth.sa.gov.au/hawkerhospital,,,41NF00103,0,404,Country Health SA,Outer Regional,4,Very small,Yes,Yes,No,No,Yes,Block-funded hospital,08 8648 4007,Cradock Road,Hawker,5434
H0612,Snowtown Hospital and Health Service,Hospital,-33.786936,138.212768,Public,Open,South Australia,Country Health SA,Country SA,50,50,www.sahealth.sa.gov.au/snowtownhospital,,,41WK00220,0,404,Country Health SA,Outer Regional,4,Very small,Yes,Yes,No,No,Yes,Block-funded hospital,08 8865 0100,South Terrace,Snowtown,5520
H0662,North Midlands Health Service,Hospital,-29.534221,115.759184,Public,Open,Western Australia,WA Country Health Service,Country WA,50,50,www.health.wa.gov.au/services/detail.cfm?Unit_ID=136,,,611000064,0,604,0,Outer Regional,4,Very small,Yes,Yes,No,No,No,Block-funded hospital,08 9954 3200,Thomas Street,Three Springs,6519
H0663,Kalbarri Health Centre,Hospital,-27.712843,114.161574,Public,Open,Western Australia,WA Country Health Service,Country WA,50,50,www.health.wa.gov.au/services/detail.cfm?Unit_ID=227,,,510600475,0071580K,503,WA Country Health Service,Remote,4,Very small,Yes,Yes,No,No,Yes,Block-funded hospital,08 9937 0100,Kaiber Street,Kalbarri,6536
H0665,Lake Grace Hospital,Hospital,-33.102524,118.452658,Public,Open,Western Australia,WA Country Health Service,Country WA,50,50,www.health.wa.gov.au/services/detail.cfm?Unit_ID=102,,,510700230,0070440W,503,WA Country Health Service,Remote,4,Very small,Yes,Yes,No,No,Yes,Block-funded hospital,08 9890 2222,Stubbs Street,Lake Grace,6353
H0670,York Hospital,Hospital,-31.894392,116.757416,Public,Open,Western Australia,WA Country Health Service,Country WA,50,50,www.health.wa.gov.au/services/detail.cfm?Unit_ID=199,,,510700251,0070830B,503,WA Country Health Service,Inner Regional,4,Very small,Yes,Yes,No,No,Yes,Block-funded hospital,08 9641 0200,Trews Road,York,6302
H0671,Beverley Hospital,Hospital,-32.102825,116.922962,Public,Open,Western Australia,WA Country Health Service,Country WA,50,50,www.health.wa.gov.au/services/detail.cfm?Unit_ID=18,,,510700401,0070060H,503,WA Country Health Service,Outer Regional,4,Very small,Yes,Yes,No,No,Yes,Block-funded hospital,08 9646 3200,Sewell Street,Beverley,6304
H0673,Bruce Rock Memorial Hospital,Hospital,-31.873038,118.146414,Public,Open,Western Australia,WA Country Health Service,Country WA,50,50,www.health.wa.gov.au/services/detail.cfm?Unit_ID=25,,,510700403,0070120K,503,WA Country Health Service,Remote,4,Very small,Yes,Yes,No,No,Yes,Block-funded hospital,08 9061 1311,35 Dunstall Street,Bruce Rock,6418
H0676,Dalwallinu Hospital,Hospital,-30.277229,116.656544,Public,Open,Western Australia,WA Country Health Service,Country WA,50,50,www.health.wa.gov.au/services/detail.cfm?Unit_ID=45,,,510700406,0070230F,503,WA Country Health Service,Remote,4,Public acute group D,Yes,Yes,No,No,Yes,Block-funded hospital,08 9661 0200,Myers Street,Dalwallinu,6609
H0679,Goomalling Hospital,Hospital,-31.303928,116.831102,Public,Open,Western Australia,WA Country Health Service,Country WA,50,50,www.health.wa.gov.au/services/detail.cfm?Unit_ID=70,,,510700411,0070320B,503,WA Country Health Service,Outer Regional,4,Very small,Yes,Yes,No,No,Yes,Block-funded hospital,08 9629 0100,Forrest Street,Goomalling,6460
H0697,Gnowangerup Hospital,Hospital,-33.930469,118.002927,Public,Open,Western Australia,WA Country Health Service,Country WA,50,50,www.health.wa.gov.au/services/detail.cfm?Unit_ID=68,,,510900410,0070330A,503,WA Country Health Service,Remote,4,Very small,Yes,Yes,No,No,Yes,Block-funded hospital,08 9827 2222,Yougenup Road,Gnowangerup,6335
H0699,Ravensthorpe Health Centre,Hospital,-33.584918,120.045461,Public,Open,Western Australia,WA Country Health Service,Country WA,50,50,www.health.wa.gov.au/services/detail.cfm?Unit_ID=157,,,510900430,0070980K,503,WA Country Health Service,Very remote,4.2,Very small,Yes,Yes,No,No,Yes,Block-funded hospital,08 9838 2211,Martin Street,Ravensthorpe,6346
H0686,Wongan Hills Hospital,Hospital,-30.894159,116.724843,Public,Open,Western Australia,WA Country Health Service,Country WA,50,50,www.health.wa.gov.au/services/detail.cfm?Unit_ID=193,,,510700437,0070810H,503,WA Country Health Service,Outer Regional,4.3,Public acute group D,Yes,Yes,No,No,Yes,Block-funded hospital,08 9691 1222,Ackland Street,Wongan Hills,6603
H0685,Southern Cross Hospital,Hospital,-31.230709,119.337829,Public,Open,Western Australia,WA Country Health Service,Country WA,50,50,www.health.wa.gov.au/services/detail.cfm?Unit_ID=169,,,510700431,0070720J,503,WA Country Health Service,Remote,4.5,Very small,Yes,Yes,No,No,Yes,Block-funded hospital,08 9081 2222,Coolgardie Road (Great Eastern Highway),Southern Cross,6426
H0708,Nannup Hospital,Hospital,-33.982797,115.76723,Public,Open,Western Australia,WA Country Health Service,Country WA,0,0,,,,511000422,0070630K,503,WA Country Health Service,Outer Regional,4.6,Very small,Yes,Yes,No,No,Yes,Block-funded hospital,08 9756 3800,Carey Street,Nannup,6275
H0693,Norseman Hospital,Hospital,-32.198566,121.767663,Public,Open,Western Australia,WA Country Health Service,Country WA,50,50,www.health.wa.gov.au/services/detail.cfm?Unit_ID=134,,,510800424,0070610T,503,WA Country Health Service,Very remote,4.7,Very small,Yes,Yes,No,No,Yes,Block-funded hospital,08 9039 9200,Talbot Street,Norseman,6443
H0172,Hillston Hospital,Hospital,-33.478793,145.539032,Public,Open,New South Wales,Murrumbidgee,Murrumbidgee,50,50,,,,1184R2080,0011440W,114,Murrumbidgee,Remote,5,Public acute group D,Yes,Yes,Yes,No,Yes,Block-funded hospital,02 6961 7200,48C Burns Street,Hillston,2675
H0176,Lockhart Hospital,Hospital,-35.222378,146.719064,Public,Open,New South Wales,Murrumbidgee,Murrumbidgee,50,50,,,,1184R2130,0011610T,114,Murrumbidgee,Outer Regional,5,Public acute group D,Yes,Yes,Yes,No,Yes,Block-funded hospital,02 6930 7100,53-55 Hebden Street,Lockhart,2656
H0236,Hesse Rural Health Service [Winchelsea],Hospital,-38.243369,143.985357,Public,Open,Victoria,Hesse Rural Health Service (Winchelsea),Western Victoria,50,50,,,,210101500,0,229,Hesse Rural Health Service (Winchelsea),Inner Regional,5,Very small,Yes,Yes,No,No,No,Block-funded hospital,03 5267 1200,8 Gosney Street,Winchelsea,3241
H0243,Heywood Rural Health,Hospital,-38.137788,141.624256,Public,Open,Victoria,Heywood Rural Health,Western Victoria,50,50,www.heywoodruralhealth.com.au,,,210102350,0,285,Heywood Rural Health,Outer Regional,5,Very small,Yes,Yes,No,No,No,Block-funded hospital,03 5527 1204,21 Barclay Street,Heywood,3304
H0426,Wondai Hospital,Hospital,-26.323335,151.878658,Public,Open,Queensland,Darling Downs,Darling Downs and West Moreton,50,50,www.health.qld.gov.au/services/darlingdowns/ddowns-wondai-hs.asp,,,310000077,0,325,Darling Downs,Outer Regional,5,Very small,Yes,Yes,No,No,Yes,Block-funded hospital,07 4169 2600,Bramston Street,Wondai,4606
H0453,Baralaba Hospital,Hospital,-24.184268,149.809586,Public,Open,Queensland,Central Queensland,"Central Queensland, Wide Bay and Sunshine Coast",50,50,www.health.qld.gov.au/services/central-queensland/baralaba.asp,,,310000132,0,316,Central Queensland,Outer Regional,5,Very small,Yes,Yes,No,No,Yes,Block-funded hospital,07 4998 2800,Stopford Street,Baralaba,4702
H0462,Theodore Hospital,Hospital,-24.943109,150.075277,Public,Open,Queensland,Central Queensland,"Central Queensland, Wide Bay and Sunshine Coast",50,50,www.health.qld.gov.au/services/central-queensland/theodore.asp,,,310000143,0,316,Central Queensland,Outer Regional,5,Public acute group D,Yes,Yes,No,No,Yes,Block-funded hospital,07 4990 3000,The Boulevard,Theodore,4719
H0525,Doomadgee Hospital,Hospital,-17.942527,138.825267,Public,Open,Queensland,North West (Qld),Western Queensland,50,50,www.health.qld.gov.au/services/northwest/nwest_doomad_hosp.asp,,,310000252,0,315,North West (Qld),Very remote,5,Public acute group D,Yes,Yes,No,No,Yes,Block-funded hospital,07 4745 8800,Sharpe Street,Doomadgee,4830
H0543,Pregnancy Advisory Centre,Hospital,-34.87999,138.542962,Public,Open,South Australia,Central Adelaide,Adelaide,0,0,,,,41CA00035,0,402,Central Adelaide,Major Cities,5,Unpeered,Yes,Yes,No,No,No,Activity-based funded hospital,08 8243 3999,21 Belmore Terrace,Woodville Park,5011
H0646,Wyndham Hospital,Hospital,-15.477793,128.127772,Public,Open,Western Australia,WA Country Health Service,Country WA,50,50,www.health.wa.gov.au/services/detail.cfm?Unit_ID=196,,,510400249,0071200B,503,WA Country Health Service,Very remote,5,Public acute group D,Yes,Yes,No,No,Yes,Block-funded hospital,08 9161 0222,Minderoo Street,Wyndham,6740
H0688,Quairading Hospital,Hospital,-32.014481,117.402627,Public,Open,Western Australia,WA Country Health Service,Country WA,50,50,www.health.wa.gov.au/services/detail.cfm?Unit_ID=155,,,510700446,0070700L,503,WA Country Health Service,Outer Regional,5,Very small,Yes,Yes,No,No,Yes,Block-funded hospital,08 9645 1100,Harris Street,Quairading,6383
H0656,Exmouth Hospital,Hospital,-21.928276,114.119882,Public,Open,Western Australia,WA Country Health Service,Country WA,50,50,www.health.wa.gov.au/services/detail.cfm?Unit_ID=57,,,510600219,0071100H,503,WA Country Health Service,Very remote,5.4,Public acute group D,Yes,Yes,No,No,Yes,Block-funded hospital,08 9949 3666,Lyon Street,Exmouth,6707
H0700,Kojonup Hospital,Hospital,-33.829481,117.152903,Public,Open,Western Australia,WA Country Health Service,Country WA,50,50,www.health.wa.gov.au/services/detail.cfm?Unit_ID=93,,,510900445,0070400B,503,WA Country Health Service,Outer Regional,5.6,Very small,Yes,Yes,No,No,Yes,Block-funded hospital,08 9831 2222,Spring Street,Kojonup,6395
H0151,Barham Hospital,Hospital,-35.623823,144.133479,Public,Open,New South Wales,Murrumbidgee,Murrumbidgee,50,50,,,,1184M2030,0010610A,114,Murrumbidgee,Outer Regional,6,Public acute group D,Yes,Yes,Yes,No,Yes,Block-funded hospital,03 5451 1000,70 Punt Road,Barham,2732
H0162,Tocumwal Hospital,Hospital,-35.815407,145.568996,Public,Open,New South Wales,Murrumbidgee,Murrumbidgee,50,50,,,,1184M2140,0012140Y,114,Murrumbidgee,Inner Regional,6,Public acute group D,Yes,Yes,Yes,No,Yes,Block-funded hospital,03 5874 2166,Adams Street,Tocumwal,2714
H0242,Beaufort & Skipton Health Service [Skipton],Hospital,-37.683998,143.367547,Public,Open,Victoria,Beaufort and Skipton Health Service,Western Victoria,50,50,www.bashs.org.au/SkiptonCampus/index.aspx,,,210102230,0,201,Beaufort and Skipton Health Service,Inner Regional,6,Very small,Yes,Yes,No,No,No,Block-funded hospital,03 5340 1100,Blake Street,Skipton,3361
H0261,West Wimmera Health Service [Kaniva],Hospital,-36.381386,141.246006,Public,Open,Victoria,West Wimmera Health Service,Western Victoria,50,50,www.wwhs.net.au/,,,210202372,0,277,West Wimmera Health Service,Outer Regional,6,Very small,Yes,Yes,No,No,No,Block-funded hospital,03 5391 4222,9 Farmers Street,Kaniva,3419
H0271,Creswick District Hospital,Hospital,-37.421192,143.891533,Public,Open,Victoria,Hepburn Health Service,Western Victoria,50,50,,,,210204162,0,206,Hepburn Health Service,Inner Regional,6,Very small,Yes,Yes,No,No,No,Block-funded hospital,03 5345 2403,1 Napier Street,Creswick,3363
H0282,East Wimmera Health Service [Wycheproof],Hospital,-36.078447,143.233779,Public,Open,Victoria,East Wimmera Health Service,Murray,50,50,www.ewhs.org.au/,,,210301560,0,205,East Wimmera Health Service,Outer Regional,6,Very small,Yes,Yes,No,No,No,Block-funded hospital,03 5478 0700,19 Grandview Street,Wycheproof,3527
H0289,Manangatang & District Hospital,Hospital,-35.050955,142.880512,Public,Open,Victoria,Robinvale District Health Services,Murray,50,50,,,,210302660,0,281,Robinvale District Health Services,Outer Regional,6,Very small,Yes,No,No,No,No,Block-funded hospital,03 5035 1500,37 Pioneer Street,Manangatang,3546
H0301,Tallangatta Health Service,Hospital,-36.213705,147.183709,Public,Open,Victoria,Tallangatta Health Service,Murray,50,50,,,,210401290,0,248,Tallangatta Health Service,Outer Regional,6,Very small,Yes,Yes,No,No,No,Block-funded hospital,02 6071 5200,25 Barree Street,Tallangatta,3700
H0314,Nathalia District Hospital,Hospital,-36.054754,145.204324,Public,Open,Victoria,Nathalia District Hospital,Murray,50,50,www.humehealth.com.au/nathalia,,,210404010,0,238,Nathalia District Hospital,Inner Regional,6,Very small,Yes,Yes,No,No,No,Block-funded hospital,03 5866 9444,36-44 McDonnell Street,Nathalia,3638
H0416,Gin Gin Hospital,Hospital,-24.985707,151.953449,Public,Open,Queensland,Wide Bay,"Central Queensland, Wide Bay and Sunshine Coast",50,50,www.health.qld.gov.au/services/widebay/wb-gingin.asp,,,310000067,0,318,Wide Bay,Outer Regional,6,Public acute group D,Yes,Yes,No,No,Yes,Block-funded hospital,07 4157 2222,5 King Street,Gin Gin,4671
H0448,Quilpie Hospital,Hospital,-26.616519,144.274617,Public,Open,Queensland,South West (Qld),Western Queensland,50,50,www.health.qld.gov.au/services/southwest/swest_quilpie_hosp.asp,,,310000118,0,326,South West (Qld),Very remote,6,Very small,Yes,Yes,No,No,Yes,Block-funded hospital,07 4656 0100,30 Gyrica Street,Quilpie,4480
H0521,Richmond Hospital,Hospital,-20.738726,143.150471,Public,Open,Queensland,Townsville,Northern Queensland,50,50,www.health.qld.gov.au/services/townsville/tville_rich_hc.asp,,,310000248,0,313,Townsville,Very remote,6,Very small,Yes,Yes,No,No,Yes,Block-funded hospital,07 4741 6100,Gallagher Drive,Richmond,4822
H0550,Elliston Hospital,Hospital,-33.647912,134.892443,Public,Open,South Australia,Country Health SA,Country SA,50,50,www.sahealth.sa.gov.au/ellistonhospital,,,41EY00097,0,404,Country Health SA,Very remote,6,Very small,Yes,Yes,No,No,Yes,Block-funded hospital,08 8687 9001,6 Memorial Terrace,Elliston,5670
H0598,Penola War Memorial Hospital,Hospital,-37.382873,140.836465,Public,Open,South Australia,Country Health SA,Country SA,50,50,www.sahealth.sa.gov.au/penolahospital,,,41SE00187,0,404,Country Health SA,Outer Regional,6,Very small,Yes,Yes,No,No,Yes,Block-funded hospital,08 8737 2311,18 Church Street,Penola,5277
H0649,Onslow Hospital,Hospital,-21.643238,115.115389,Public,Open,Western Australia,WA Country Health Service,Country WA,50,50,www.health.wa.gov.au/services/detail.cfm?Unit_ID=221,,,510500238,0070650H,503,WA Country Health Service,Very remote,6,Public acute group D,Yes,Yes,No,No,Yes,Block-funded hospital,08 9184 3200,Second Avenue,Onslow,6710
H5404,Kings Park Day Hospital,Hospital,-31.950455,115.836075,Private,Open,Western Australia,,,0,0,,,,613000034,0,604,0,Very remote,6,Public acute group D,Yes,Yes,No,No,No,Block-funded hospital,,,,
H0709,Pemberton Hospital,Hospital,-34.444875,116.031954,Public,Open,Western Australia,WA Country Health Service,Country WA,50,50,www.health.wa.gov.au/services/detail.cfm?Unit_ID=149,,,511000427,0070660F,503,WA Country Health Service,Outer Regional,6.8,Public acute group D,Yes,Yes,No,No,Yes,Block-funded hospital,08 9776 4000,Railway Cresent,Pemberton,6260
H0263,West Wimmera Health Service [Rainbow],Hospital,-35.903874,141.995112,Public,Open,Victoria,West Wimmera Health Service,Western Victoria,50,50,www.wwhs.net.au/,,,210202374,0,277,West Wimmera Health Service,Remote,7,Very small,Yes,Yes,No,No,No,Block-funded hospital,03 5391 4222,2 Swinbourne Avenue,Rainbow,3424
H0444,Dirranbandi Hospital,Hospital,-28.579349,148.229159,Public,Open,Queensland,South West (Qld),Western Queensland,50,50,www.health.qld.gov.au/services/southwest/swest_dirran_hosp.asp,,,310000114,0,326,South West (Qld),Very remote,7,Public acute group D,Yes,Yes,No,No,Yes,Block-funded hospital,07 4625 8222,Corner of Jane and Cowildi Streets,Dirranbandi,4486
H0445,Injune Hospital,Hospital,-25.847096,148.562471,Public,Open,Queensland,South West (Qld),Western Queensland,50,50,www.health.qld.gov.au/services/southwest/swest_injune_hosp.asp,,,310000115,0,326,South West (Qld),Remote,7,Public acute group D,Yes,Yes,No,No,Yes,Block-funded hospital,07 4626 1188,Fifth Avenue,Injune,4454
H0464,Woorabinda Hospital,Hospital,-24.131492,149.455983,Public,Open,Queensland,Central Queensland,"Central Queensland, Wide Bay and Sunshine Coast",0,0,,,,310000145,0,316,Central Queensland,Remote,7,Public acute group D,Yes,Yes,No,No,Yes,Block-funded hospital,07 4913 2800,1 Munns Drive,Woorabinda,4702
H0606,Burra Hospital,Hospital,-33.685486,138.934577,Public,Open,South Australia,Country Health SA,Country SA,50,50,www.sahealth.sa.gov.au/burrahospital,,,41WK00073,0,404,Country Health SA,Outer Regional,7,Very small,Yes,Yes,No,No,Yes,Block-funded hospital,08 8892 2300,46 Commercial Street,Burra,5417
H0224,Wilcannia Multi Purpose Service,Hospital,-31.557638,143.385336,Public,Open,New South Wales,Far West,Western NSW,50,50,,,,1186S2040,0012380F,115,Far West,Very remote,8,Very small,Yes,No,Yes,No,Yes,Block-funded hospital,08 8083 8777,14 Ross Street,Wilcannia,2836
H0252,East Grampians Health Service [Willaura],Hospital,-37.544798,142.74587,Public,Open,Victoria,East Grampians Health Service,Western Victoria,0,0,,,,210201102,0,202,East Grampians Health Service,Outer Regional,8,Very small,Yes,Yes,No,No,No,Activity-based funded hospital,03 5354 1600,Delacombe Way,Willaura,3379
H0294,Inglewood & District Health Service,Hospital,-36.572147,143.873755,Public,Open,Victoria,Inglewood and District Health Service,Murray,50,50,,,,210303370,0,220,Inglewood and District Health Service,Inner Regional,8,Public acute group D,Yes,Yes,No,No,No,Block-funded hospital,03 5431 7000,3 Hospital Street,Inglewood,3517
H0295,East Wimmera Health Service [Birchip],Hospital,-35.980167,142.915891,Public,Open,Victoria,East Wimmera Health Service,Murray,50,50,www.ewhs.org.au,,,210304120,0,205,East Wimmera Health Service,Outer Regional,8,Very small,Yes,Yes,No,No,No,Block-funded hospital,03 5477 7100,26 Duncan Street,Birchip,3483
H0299,Goulburn Valley Health [Tatura],Hospital,-36.439082,145.225535,Public,Open,Victoria,Goulburn Valley Health,Murray,50,50,,,,210401122,0,235,Goulburn Valley Health,Inner Regional,8,Very small,Yes,Yes,No,No,No,Activity-based funded hospital,03 5824 8400,64-68 Park Street,Tatura,3616
H0415,Gayndah Hospital,Hospital,-25.631384,151.604531,Public,Open,Queensland,Wide Bay,"Central Queensland, Wide Bay and Sunshine Coast",50,50,www.health.qld.gov.au/services/widebay/wb-gayndah.asp,,,310000066,0,318,Wide Bay,Outer Regional,8,Public acute group D,Yes,Yes,No,No,Yes,Block-funded hospital,07 4161 3500,69 Warton Street,Gayndah,4625
H0473,Winton Hospital,Hospital,-22.381189,143.040672,Public,Open,Queensland,Central West (Qld),Western Queensland,50,50,www.health.qld.gov.au/services/centralwest/cwest_winton_hosp.asp,,,310000159,0,317,Central West (Qld),Very remote,8,Public acute group D,Yes,Yes,No,No,Yes,Block-funded hospital,07 4657 2700,Bloomfield Street,Winton,4735
H0485,Collinsville Hospital,Hospital,-20.546108,147.838146,Public,Open,Queensland,Mackay,Northern Queensland,50,50,www.health.qld.gov.au/services/mackay/collin_hosp.asp,,,310000194,0,314,Mackay,Remote,8,Public acute group D,Yes,Yes,No,No,Yes,Block-funded hospital,07 4785 4777,Garrick Street,Collinsville,4804
H0548,Cowell District Hospital and Aged Care,Hospital,-33.685299,136.921405,Public,Open,South Australia,Country Health SA,Country SA,50,50,www.sahealth.sa.gov.au/cowellhospital,,,41EY00088,0,404,Country Health SA,Remote,8,Very small,Yes,Yes,No,No,Yes,Block-funded hospital,08 8629 2437,17 South Terrace,Cowell,5602
H0551,Kimba District Hospital and Aged Care,Hospital,-33.143552,136.416013,Public,Open,South Australia,Country Health SA,Country SA,50,50,www.sahealth.sa.gov.au/kimbahospital,,,41EY00121,0,404,Country Health SA,Remote,8,Very small,Yes,Yes,No,No,Yes,Block-funded hospital,08 8627 2400,15 Martin Terrace,Kimba,5641
H0566,Pinnaroo Soldiers' Memorial Hospital,Hospital,-35.257499,140.902447,Public,Open,South Australia,Country Health SA,Country SA,50,50,www.sahealth.sa.gov.au/pinnaroohospital,,,41HM00193,0,404,Country Health SA,Remote,8,Very small,Yes,Yes,No,No,Yes,Block-funded hospital,08 8577 9222,Bundey Terrace,Pinnaroo,5304
H0573,Orroroo and District Health Service,Hospital,-32.738519,138.607206,Public,Open,South Australia,Country Health SA,Country SA,50,50,www.sahealth.sa.gov.au/orroroohealthservice,,,41MN00184,0,404,Country Health SA,Outer Regional,8,Very small,Yes,Yes,No,No,Yes,Block-funded hospital,08 8658 1023,Pekina Road,Orroroo,5431
H0608,Eudunda Hospital,Hospital,-34.175482,139.090586,Public,Open,South Australia,Country Health SA,Country SA,50,50,www.sahealth.sa.gov.au/eudundahospital,,,41WK00100,0,404,Country Health SA,Inner Regional,8,Very small,Yes,Yes,No,No,Yes,Block-funded hospital,08 8566 2007,40 Ward Street,Eudunda,5374
H0643,Halls Creek Hospital,Hospital,-18.226008,127.666046,Public,Open,Western Australia,WA Country Health Service,Country WA,50,50,www.health.wa.gov.au/services/detail.cfm?Unit_ID=74,,,510400128,0070340Y,503,WA Country Health Service,Very remote,8,Public acute group D,Yes,Yes,No,No,Yes,Block-funded hospital,08 9168 9222,70 Roberta Avenue,Halls Creek,6770
H0650,Roebourne Hospital,Hospital,-20.776317,117.143955,Public,Open,Western Australia,WA Country Health Service,Country WA,50,50,www.health.wa.gov.au/services/detail.cfm?Unit_ID=256,,,510500243,0070710K,503,WA Country Health Service,Remote,8,Very small,Yes,Yes,No,No,Yes,Block-funded hospital,08 9182 0200,42-44 Hampton Street,Roebourne,6718
H0651,Tom Price Hospital,Hospital,-22.695367,117.790271,Public,Open,Western Australia,WA Country Health Service,Country WA,50,50,www.health.wa.gov.au/services/detail.cfm?Unit_ID=257,,,510500256,0071140Y,503,WA Country Health Service,Very remote,8,Public acute group D,Yes,Yes,No,No,Yes,Block-funded hospital,08 9159 5222,862 Mine Road,Tom Price,6751
H0652,Newman Hospital,Hospital,-23.354824,119.736503,Public,Open,Western Australia,WA Country Health Service,Country WA,50,50,www.health.wa.gov.au/services/detail.cfm?Unit_ID=131,,,510500260,0071180L,503,WA Country Health Service,Very remote,8,Public acute group D,Yes,Yes,No,No,Yes,Block-funded hospital,08 9175 8333,54 Mindarra Drive,Newman,6753
H0672,Boddington Hospital,Hospital,-32.803715,116.475774,Public,Open,Western Australia,WA Country Health Service,Country WA,50,50,www.health.wa.gov.au/services/detail.cfm?Unit_ID=19,,,510700402,0070070F,503,WA Country Health Service,Inner Regional,8,Very small,Yes,Yes,No,No,Yes,Block-funded hospital,08 9883 4444,46-53 Hotham Avenue,Boddington,6390
H0691,Laverton Hospital,Hospital,-28.626817,122.399861,Public,Open,Western Australia,WA Country Health Service,Country WA,50,50,www.health.wa.gov.au/services/detail.cfm?Unit_ID=103,,,510800272,0070450T,503,WA Country Health Service,Very remote,8,Very small,Yes,Yes,No,No,Yes,Block-funded hospital,08 9088 2600,Beria Road,Laverton,6440
H0710,Boyup Brook Soldiers Memorial Hospital,Hospital,-33.839231,116.390639,Public,Open,Western Australia,WA Country Health Service,Country WA,50,50,www.health.wa.gov.au/services/detail.cfm?Unit_ID=20,,,511000432,0070080B,503,WA Country Health Service,Outer Regional,8.2,Very small,Yes,Yes,No,No,Yes,Block-funded hospital,08 9765 0222,Hospital Road,Boyup Brook,6244
H0089,Tingha Multi Purpose Service,Hospital,-29.950779,151.206732,Public,Open,New South Wales,Hunter New England,Hunter New England and Central Coast,50,50,,,,1180J2170,0012130A,109,Hunter New England,Outer Regional,9,Outpatient hospital,Yes,No,Yes,No,Yes,Block-funded hospital,02 6723 3901,Inverell Road,Tingha,2369
H0305,Alpine Health [Bright],Hospital,-36.732701,146.965924,Public,Open,Victoria,Alpine Health (Vic),Murray,50,50,www.alpinehealth.org.au,,,210401882,0,245,Alpine Health (Vic),Outer Regional,9,Public acute group C,Yes,Yes,No,No,Yes,Block-funded hospital,03 5755 0100,36-42 Cobden Street,Bright,3741
H0327,Central Gippsland Health Service [Maffra],Hospital,-37.961032,146.983487,Public,Open,Victoria,Central Gippsland Health Service,Gippsland,50,50,www.gha.net.au,,,210502580,0,259,Central Gippsland Health Service,Inner Regional,9,Public acute group D,Yes,Yes,No,No,Yes,Activity-based funded hospital,03 5147 0100,48 Kent Street,Maffra,3860
H0346,Kooweerup Regional Health Service,Hospital,-38.200653,145.484433,Public,Open,Victoria,Kooweerup Regional Health Service,South Eastern Melbourne,50,50,www.kooweeruphospital.net.au,,,210901480,0,271,Kooweerup Regional Health Service,Inner Regional,9,Very small,Yes,Yes,No,No,Yes,Block-funded hospital,03 5997 9679,215 Rossiter Road,Koo Wee Rup,3981
H0481,Dysart Hospital,Hospital,-22.582729,148.353044,Public,Open,Queensland,Mackay,Northern Queensland,50,50,www.health.qld.gov.au/services/mackay/dysart_hosp.asp,,,310000176,0,314,Mackay,Outer Regional,9,Public acute group D,Yes,Yes,No,No,Yes,Block-funded hospital,07 4941 1911,Queen Elizabeth Drive,Dysart,4745
H0517,Hughenden Hospital,Hospital,-20.8424,144.1892,Public,Open,Queensland,Townsville,Northern Queensland,0,0,,,,310000244,0,313,Townsville,Very remote,9,Public acute group D,Yes,Yes,No,No,Yes,Block-funded hospital,07 4741 2800,14 Richmond Hill Drive,Hughenden,4821
H0560,Tailem Bend District Hospital,Hospital,-35.254803,139.452692,Public,Open,South Australia,Country Health SA,Country SA,50,50,www.sahealth.sa.gov.au/tailembendhospital,,,41HM00136,0,404,Country Health SA,Inner Regional,9,Public acute group D,Yes,Yes,No,No,Yes,Block-funded hospital,08 8572 5800,74 Princes Highway,Tailem Bend,5260
H0219,Tottenham Multipurpose Service,Hospital,-32.242711,147.358031,Public,Open,New South Wales,Western NSW,Western NSW,50,50,,,,1185L2230,0012150X,112,Western NSW,Remote,9.8,Very small,Yes,Yes,Yes,No,Yes,Block-funded hospital,02 6891 6200,Lot 10 Moondana Street,Tottenham,2873
H0147,Yass District Hospital,Hospital,-34.844072,148.906427,Public,Open,New South Wales,Southern NSW,South Eastern NSW,50,50,,,,1183N2170,0012420L,113,Southern NSW,Inner Regional,10,Public acute group D,Yes,Yes,Yes,No,Yes,Block-funded hospital,,,,
H0212,Molong Health Service,Hospital,-33.087622,148.859724,Public,Open,New South Wales,Western NSW,Western NSW,50,50,,,,1185L2140,0011750B,112,Western NSW,Inner Regional,10,Public acute group D,Yes,Yes,Yes,No,Yes,Block-funded hospital,02 6392 3300,King Street,Molong,2866
H0228,Coral Tree Family Centre,Hospital,-33.804256,151.126212,Public,Open,New South Wales,Northern Sydney,Northern Sydney,50,50,www.nscchealth.nsw.gov.au/services/coraltree/,,,1476B2410,0,106,Northern Sydney,Major Cities,10,Psychiatric,Yes,Yes,No,No,No,Block-funded hospital,02 9887 5830,Badajoz And Twin Roads,North Ryde,2113
H0266,Beaufort & Skipton Health Service [Beaufort],Hospital,-37.431028,143.382284,Public,Open,Victoria,Beaufort and Skipton Health Service,Western Victoria,50,50,www.bashs.org.au/BeaufortCampus/index.aspx,,,210203120,0,201,Beaufort and Skipton Health Service,Inner Regional,10,Very small,Yes,Yes,No,No,No,Block-funded hospital,03 5349 1600,28 Havelock Street,Beaufort,3373
H0306,Alpine Health [Mount Beauty],Hospital,-36.743354,147.169359,Public,Open,Victoria,Alpine Health (Vic),Murray,50,50,www.alpinehealth.org.au,,,210401883,0,245,Alpine Health (Vic),Inner Regional,10,Public acute group D,Yes,Yes,No,No,Yes,Block-funded hospital,03 5754 3500,10 Hollonds Street,Mt Beauty,3699
H0313,Yea & District Memorial Hospital,Hospital,-37.213634,145.430724,Public,Open,Victoria,Yea and District Memorial Hospital,Murray,50,50,,,,210403590,0,242,Yea and District Memorial Hospital,Inner Regional,10,Public acute group D,Yes,Yes,No,No,No,Block-funded hospital,03 5736 0400,45 Station Street,Yea,3717
H0425,Nanango Hospital,Hospital,-26.666405,152.007833,Public,Open,Queensland,Darling Downs,Darling Downs and West Moreton,50,50,www.health.qld.gov.au/services/darlingdowns/ddowns-nanango-hs.asp,,,310000076,0,325,Darling Downs,Inner Regional,10,Public acute group D,Yes,Yes,No,No,Yes,Block-funded hospital,07 4171 6700,135 Brisbane Street,Nanango,4615
H0434,Oakey Hospital,Hospital,-27.424079,151.719088,Public,Open,Queensland,Darling Downs,Darling Downs and West Moreton,50,50,www.health.qld.gov.au/services/darlingdowns/ddowns-oakey-hs.asp,,,310000099,0,325,Darling Downs,Inner Regional,10,Public acute group D,Yes,Yes,No,No,Yes,Block-funded hospital,07 4691 4888,Corner Beale and Fitzpatrick Streets,Oakey,4401
H0437,Taroom Hospital,Hospital,-25.638818,149.798669,Public,Open,Queensland,Darling Downs,Darling Downs and West Moreton,50,50,www.health.qld.gov.au/services/darlingdowns/ddowns-taroom-hs.asp,,,310000102,0,325,Darling Downs,Remote,10,Public acute group D,Yes,Yes,No,No,Yes,Block-funded hospital,07 4628 9900,Miller Street,Taroom,4420
H0455,Blackwater Hospital,Hospital,-23.571873,148.878219,Public,Open,Queensland,Central Queensland,"Central Queensland, Wide Bay and Sunshine Coast",50,50,www.health.qld.gov.au/services/central-queensland/blackwater.asp,,,310000134,0,316,Central Queensland,Outer Regional,10,Public acute group D,Yes,Yes,No,No,Yes,Block-funded hospital,07 4980 1800,Mackenzie Street,Blackwater,4717
H0458,Mount Morgan Hospital,Hospital,-23.645094,150.392639,Public,Open,Queensland,Central Queensland,"Central Queensland, Wide Bay and Sunshine Coast",50,50,www.health.qld.gov.au/services/central-queensland/mt-morgan.asp,,,310000139,0,316,Central Queensland,Inner Regional,10,Public acute group D,Yes,Yes,No,No,Yes,Block-funded hospital,07 4912 5100,Black Street,Mount Morgan,4714
H0461,Springsure Hospital,Hospital,-24.120122,148.084762,Public,Open,Queensland,Central Queensland,"Central Queensland, Wide Bay and Sunshine Coast",50,50,www.health.qld.gov.au/services/central-queensland/springsure.asp,,,310000142,0,316,Central Queensland,Remote,10,Public acute group D,Yes,Yes,No,No,Yes,Block-funded hospital,07 4984 1200,Woodbine Street,Springsure,4722
H0476,Clermont Hospital,Hospital,-22.826219,147.632174,Public,Open,Queensland,Mackay,Northern Queensland,50,50,www.health.qld.gov.au/services/mackay/clerm_mphs.asp,,,310000171,0,314,Mackay,Remote,10,Public acute group D,Yes,Yes,No,No,Yes,Block-funded hospital,07 4983 4000,Francis Street,Clermont,4721
H0522,Mornington Island Hospital,Hospital,-16.665534,139.178559,Public,Open,Queensland,North West (Qld),Western Queensland,50,50,www.health.qld.gov.au/services/northwest/nwest_mornis_phcc1.asp,,,310000249,0,315,North West (Qld),Very remote,10,Public acute group D,Yes,Yes,No,No,Yes,Block-funded hospital,07 4745 7209,Lardyl Street,Mornington Island,4871
H0585,Roxby Downs Health Service,Hospital,-30.562778,136.894261,Public,Open,South Australia,Country Health SA,Country SA,50,50,www.sahealth.sa.gov.au/roxbydownshospital,,,41NF00217,0,404,Country Health SA,Remote,10,Public acute group D,Yes,Yes,No,No,Yes,Block-funded hospital,08 8671 9020,16-28 Burgoyne Street,Roxby Downs,5725
H0594,Kingston Soldiers' Memorial Hospital,Hospital,-36.835501,139.848763,Public,Open,South Australia,Country Health SA,Country SA,50,50,www.sahealth.sa.gov.au/kingstonhospital,,,41SE00124,0,404,Country Health SA,Outer Regional,10,Public acute group D,Yes,Yes,No,No,Yes,Block-funded hospital,08 8767 0222,Corner of Cooke and Young Streets,Kingston SE,5275
H0669,Wagin Hospital,Hospital,-33.304662,117.347319,Public,Open,Western Australia,WA Country Health Service,Country WA,50,50,www.health.wa.gov.au/services/detail.cfm?Unit_ID=179,,,510700245,0070740F,503,WA Country Health Service,Outer Regional,10,Very small,Yes,Yes,No,No,Yes,Block-funded hospital,08 9861 3444,Warwick Street,Wagin,6315
H0701,Augusta Hospital,Hospital,-34.305814,115.157983,Public,Open,Western Australia,WA Country Health Service,Country WA,50,50,www.health.wa.gov.au/services/detail.cfm?Unit_ID=10,,,511000204,0071110F,503,WA Country Health Service,Inner Regional,10,Public acute group D,Yes,Yes,No,No,Yes,Block-funded hospital,08 9758 3222,Donovan Street,Augusta,6290
H0184,Cobar Health Service,Hospital,-31.509026,145.825266,Public,Open,New South Wales,Western NSW,Western NSW,50,50,,,,1185K2030,0010950B,112,Western NSW,Remote,10.1,Public acute group D,Yes,Yes,Yes,No,Yes,Block-funded hospital,02 6830 2111,Lerida Road,Cobar,2835
H0206,Canowindra Soldiers Memorial Hospital,Hospital,-33.557204,148.676576,Public,Open,New South Wales,Western NSW,Western NSW,50,50,,,,1185L2030,0010890Y,112,Western NSW,Inner Regional,10.1,Public acute group D,Yes,Yes,Yes,No,Yes,Block-funded hospital,,,,
H0060,Wentworth Psychiatric Services,Hospital,-33.760249,150.712613,Public,Open,New South Wales,Nepean Blue Mountains,Nepean Blue Mountains,50,50,,,,1175D2320,0,105,Nepean Blue Mountains,Major Cities,11,Unpeered,Yes,No,No,No,No,Block-funded hospital,02 4734 2000,Derby Street,Penrith,2750
H0217,Trundle Multi Purpose Health Service,Hospital,-32.921078,147.704315,Public,Open,New South Wales,Western NSW,Western NSW,50,50,,,,1185L2190,0012580X,112,Western NSW,Outer Regional,11,Very small,Yes,Yes,Yes,No,Yes,Block-funded hospital,02 6892 1051,44 Brookview Street,Trundle,2875
H0245,Moyne Health Services [Port Fairy],Hospital,-38.381599,142.227523,Public,Open,Victoria,Moyne Health Services (Port Fairy),Western Victoria,50,50,,,,210102450,0,287,Moyne Health Services (Port Fairy),Inner Regional,11,Public acute group D,Yes,Yes,No,No,No,Block-funded hospital,03 5568 0100,30-36 Villiers Street,Port Fairy,3284
H0488,Joyce Palmer Health Service,Hospital,-18.732733,146.578731,Public,Open,Queensland,Townsville,Northern Queensland,50,50,www.health.qld.gov.au/services/townsville/tville_jpalm_hs.asp,,,310000197,0,313,Townsville,Remote,11,Public acute group D,Yes,Yes,No,No,Yes,Block-funded hospital,07 4752 5100,Beach Road,Palm Island,4816
H0492,Babinda Hospital,Hospital,-17.343079,145.918908,Public,Open,Queensland,Cairns and Hinterland,Northern Queensland,50,50,www.health.qld.gov.au/services/cairns-hinterland/cairns_babin_hosp.asp,,,310000212,0,312,Cairns and Hinterland,Outer Regional,11,Public acute group D,Yes,Yes,No,No,Yes,Block-funded hospital,07 4067 8200,128 Munro Street,Babinda,4861
H0559,Lameroo District Health Service,Hospital,-35.328203,140.514643,Public,Open,South Australia,Country Health SA,Country SA,50,50,www.sahealth.sa.gov.au/lameroohealthservice,,,41HM00127,0,404,Country Health SA,Remote,11,Public acute group D,Yes,Yes,No,No,Yes,Block-funded hospital,08 8576 4600,1A Vardon Terrace,Lameroo,5302
H0584,Quorn Health Service,Hospital,-32.350917,138.038138,Public,Open,South Australia,Country Health SA,Country SA,50,50,www.sahealth.sa.gov.au/quornhospital,"General surgery,",,41NF00208,0,404,Country Health SA,Outer Regional,11,Public acute group D,Yes,Yes,No,Yes,Yes,Block-funded hospital,08 8648 7888,Hospital Road,Quorn,5433
H0658,Meekatharra Hospital,Hospital,-26.591366,118.491861,Public,Open,Western Australia,WA Country Health Service,Country WA,50,50,www.health.wa.gov.au/services/detail.cfm?Unit_ID=115,,,510600234,0070500Y,503,WA Country Health Service,Very remote,11,Public acute group D,Yes,Yes,No,No,Yes,Block-funded hospital,08 9981 0600,Savage Street,Meekatharra,6642
H0253,Rural Northwest Health [Warracknabeal],Hospital,-36.252614,142.381609,Public,Open,Victoria,Rural Northwest Health (Vic),Western Victoria,50,50,www.rnh.net.au,,,210201571,0,274,Rural Northwest Health (Vic),Outer Regional,12,Public acute group D,Yes,Yes,No,No,No,Block-funded hospital,03 5396 1200,18 Dimboola Road,Warracknabeal,3393
H0274,Goulburn Valley Health [Waranga],Hospital,-36.587827,145.008593,Public,Open,Victoria,Goulburn Valley Health,Murray,50,50,www.gvhealth.org.au,,,210301123,0,235,Goulburn Valley Health,Inner Regional,12,Very small,Yes,Yes,No,No,No,Activity-based funded hospital,03 5851 8050,14 Coyle Street,Rushworth,3612
H0283,Cohuna District Hospital,Hospital,-35.800063,144.214911,Public,Open,Victoria,Cohuna District Hospital,Murray,50,50,,,,210405120,0,239,Cobram District Hospital,Inner Regional,12,Public acute group D,Yes,Yes,No,No,Yes,Block-funded hospital,03 5456 5300,144-158 King George Street,Cohuna,3568
H0292,Rochester & Elmore District Health Service,Hospital,-36.366579,144.697751,Public,Open,Victoria,Rochester and Elmore District Health Service,Murray,50,50,www.redhs.com.au,,,210303140,0,219,Rochester and Elmore District Health Service,Inner Regional,12,Public acute group D,Yes,Yes,No,No,Yes,Block-funded hospital,03 5484 4400,1 Pascoe Street,Rochester,3561
H0431,Jandowae Hospital,Hospital,-26.781016,151.105313,Public,Open,Queensland,Darling Downs,Darling Downs and West Moreton,50,50,www.health.qld.gov.au/services/darlingdowns/ddowns-jandowae-hs.asp,,,310000095,0,325,Darling Downs,Outer Regional,12,Very small,Yes,Yes,No,No,Yes,Block-funded hospital,07 4668 4555,13 Dalby Street,Jandowae,4410
H0433,Millmerran Hospital,Hospital,-27.878928,151.26267,Public,Open,Queensland,Darling Downs,Darling Downs and West Moreton,0,0,,,,310000098,0,325,Darling Downs,Inner Regional,12,Public acute group D,Yes,Yes,No,No,Yes,Block-funded hospital,07 4695 3111,50 Commens Street,Millmerran,4357
H0446,Mitchell Hospital,Hospital,-26.489913,147.972493,Public,Open,Queensland,South West (Qld),Western Queensland,50,50,www.health.qld.gov.au/services/southwest/swest_mitch_hosp.asp,,,310000116,0,326,South West (Qld),Very remote,12,Public acute group D,Yes,Yes,No,No,Yes,Block-funded hospital,07 4623 1277,95 Ann Street,Mitchell,4465
H0466,Barcaldine Hospital,Hospital,-23.553316,145.293674,Public,Open,Queensland,Central West (Qld),Western Queensland,50,50,www.health.qld.gov.au/services/centralwest/cwest_barc_hosp.asp,,,310000152,0,317,Central West (Qld),Very remote,12,Public acute group D,Yes,Yes,No,No,Yes,Block-funded hospital,07 4650 4000,Oak Street,Barcaldine,4725
H0478,Moranbah Hospital,Hospital,-22.002125,148.055287,Public,Open,Queensland,Mackay,Northern Queensland,50,50,www.health.qld.gov.au/services/mackay/moranb_hosp.asp,,,310000173,0,314,Mackay,Outer Regional,12,Public acute group D,Yes,Yes,No,No,Yes,Block-funded hospital,07 4941 4600,Elliott Street,Moranbah,4744
H0571,Jamestown Hospital and Health Service,Hospital,-33.212265,138.616249,Public,Open,South Australia,Country Health SA,Country SA,50,50,www.sahealth.sa.gov.au/jamestownhospital,"General surgery,Gynaecology,","Ganglion - excision of,",41MN00109,0,404,Country Health SA,Outer Regional,12,Public acute group C,Yes,Yes,No,Yes,Yes,Block-funded hospital,08 8664 1406,South Terrace,Jamestown,5491
H0682,Moora Hospital,Hospital,-30.639557,116.001119,Public,Open,Western Australia,WA Country Health Service,Country WA,50,50,www.health.wa.gov.au/services/detail.cfm?Unit_ID=120,,,510700417,0070540L,503,WA Country Health Service,Outer Regional,12,Public acute group D,Yes,Yes,No,No,Yes,Block-funded hospital,08 9651 0222,Dandaragan Road,Moora,6510
H0190,Gulargambone Multi Purpose Service,Hospital,-31.329812,148.469216,Public,Open,New South Wales,Western NSW,Western NSW,50,50,,,,1185K2100,0011060H,112,Western NSW,Outer Regional,12.2,Very small,Yes,No,Yes,No,Yes,Block-funded hospital,02 6825 1201,47 Bourbah Street,Gulargambone,2828
H0201,Wellington Health Service,Hospital,-32.549741,148.951977,Public,Open,New South Wales,Western NSW,Western NSW,50,50,,,,1185K2220,0012350K,112,Western NSW,Outer Regional,12.9,Public acute group D,Yes,Yes,Yes,No,Yes,Block-funded hospital,02 6840 7200,30 Thornton Street,Wellington,2820
H0141,Delegate Multi Purpose Service,Hospital,-37.04496,148.945958,Public,Open,New South Wales,Southern NSW,South Eastern NSW,0,0,,,,1183N2080,0011140H,113,Southern NSW,Outer Regional,13,Very small,Yes,No,Yes,No,Yes,Block-funded hospital,02 6459 8000,15 Craigie Street,Delegate,2633
H0185,Collarenebri Multi Purpose Service,Hospital,-29.544889,148.581901,Public,Open,New South Wales,Western NSW,Western NSW,50,50,,,,1185K2040,0010980X,112,Western NSW,Remote,13,Very small,Yes,Yes,Yes,No,Yes,Block-funded hospital,02 6756 4888,Walgett Street,Collarenebri,2833
H0222,Wentworth Hospital,Hospital,-34.109983,141.922481,Public,Open,New South Wales,Far West,Western NSW,50,50,www.wentworth.nsw.gov.au/services/healthdir.php,,,1186M2160,0012360J,115,Far West,Outer Regional,13,Very small,Yes,Yes,No,No,Yes,Block-funded hospital,03 5027 7111,Silver City Highway,Wentworth,2648
H0293,East Wimmera Health Service [Donald],Hospital,-36.366895,142.976583,Public,Open,Victoria,East Wimmera Health Service,Murray,50,50,www.ewhs.org.au,,,210303190,0,205,East Wimmera Health Service,Outer Regional,13,Public acute group D,Yes,Yes,No,No,No,Block-funded hospital,03 5478 6200,7 Aitken Avenue,Donald,3480
H0316,Beechworth Health Service,Hospital,-36.349359,146.690739,Public,Open,Victoria,Beechworth Health Service,Murray,50,50,www.beechworthhealthservice.com.au,,,210404460,0,251,Beechworth Health Service,Inner Regional,13,Public acute group D,Yes,Yes,No,No,No,Block-funded hospital,03 5728 0200,52 Sydney Road,Beechworth,3747
H0432,Miles Hospital,Hospital,-26.658236,150.191023,Public,Open,Queensland,Darling Downs,Darling Downs and West Moreton,50,50,www.health.qld.gov.au/services/darlingdowns/ddowns-miles-hs.asp,,,310000097,0,325,Darling Downs,Outer Regional,13,Public acute group D,Yes,Yes,No,No,Yes,Block-funded hospital,07 4628 5600,26 Colamba Street,Miles,4415
H0546,Wudinna Hospital,Hospital,-33.050274,135.466983,Public,Open,South Australia,Country Health SA,Country SA,50,50,www.sahealth.sa.gov.au/wudinnahospital,,,41EY00076,0,404,Country Health SA,Very remote,13,Very small,Yes,Yes,No,No,Yes,Block-funded hospital,08 8680 2254,16-24 Richards Avenue,Wudinna,5652
H0561,Mannum District Hospital,Hospital,-34.916481,139.308614,Public,Open,South Australia,Country Health SA,Country SA,50,50,www.sahealth.sa.gov.au/mannumhospital,,,41HM00145,0,404,Country Health SA,Inner Regional,13,Public acute group D,Yes,Yes,No,No,Yes,Block-funded hospital,08 8569 0200,Parker Street,Mannum,5238
H0570,Crystal Brook and District Hospital,Hospital,-33.354297,138.213243,Public,Open,South Australia,Country Health SA,Country SA,50,50,www.sahealth.sa.gov.au/crystalbrookhospital,"General surgery,","Carpal tunnel release,Skin lesion - excision of,",41MN00091,0,404,Country Health SA,Outer Regional,13,Public acute group C,Yes,Yes,No,Yes,Yes,Block-funded hospital,08 8636 1100,Edmund Terrace,Crystal Brook,5523
H0156,Finley Hospital,Hospital,-35.641725,145.568139,Public,Open,New South Wales,Murrumbidgee,Murrumbidgee,50,50,,,,1184M2080,0011210J,114,Murrumbidgee,Inner Regional,13.2,Public acute group D,Yes,Yes,Yes,No,Yes,Block-funded hospital,03 5883 1133,20-22 Dawe Avenue,Finley,2713
H0121,Nimbin Multi Purpose Service,Hospital,-28.597371,153.223185,Public,Open,New South Wales,Northern NSW,North Coast,50,50,,,,1181H2150,0011890L,111,Northern NSW,Inner Regional,13.3,Very small,Yes,Yes,Yes,No,Yes,Block-funded hospital,02 6689 1400,35 Cullen Street,Nimbin,2480
H0127,Riverlands Drug and Alcohol Centre,Hospital,-28.80834,153.29112,Public,Open,New South Wales,Northern NSW,North Coast,0,0,,,,1181H2670,0011590B,111,Northern NSW,Inner Regional,13.5,Drug and alcohol hospital,Yes,Yes,No,No,No,Block-funded hospital,02 6620 7600,Hunter Street,Lismore,2480
H0111,Tomaree Community Hospital,Hospital,-32.720053,152.158858,Public,Open,New South Wales,Hunter New England,Hunter New England and Central Coast,50,50,,,,1180Q2250,0010000F,109,Hunter New England,Inner Regional,14,Public acute group D,Yes,Yes,Yes,No,Yes,Block-funded hospital,,,,
H0152,Berrigan Multi Purpose Service,Hospital,-35.662312,145.813035,Public,Open,New South Wales,Murrumbidgee,Murrumbidgee,50,50,,,,1184M2040,0010700Y,114,Murrumbidgee,Outer Regional,14,Public acute group D,Yes,Yes,Yes,No,Yes,Block-funded hospital,03 5888 5300,137-143 Memorial Place,Berrigan,2712
H0174,Coolamon-Ganmain Multi Purpose Service,Hospital,-34.819885,147.199329,Public,Open,New South Wales,Murrumbidgee,Murrumbidgee,50,50,,,,1184R2100,0011520W,114,Murrumbidgee,Inner Regional,14,Public acute group D,Yes,Yes,Yes,No,Yes,Block-funded hospital,,,,
H0209,Eugowra Memorial Multipurpose Service,Hospital,-33.424421,148.366799,Public,Open,New South Wales,Western NSW,Western NSW,50,50,,,,1185L2080,0011200K,112,Western NSW,Outer Regional,14,Very small,Yes,No,No,No,Yes,Block-funded hospital,,,,
H0244,Timboon & District Healthcare Service,Hospital,-38.486231,142.976717,Public,Open,Victoria,Timboon and District Healthcare Service,Western Victoria,50,50,www.timboonhealthcare.com.au,,,210102360,0,286,Timboon and District Healthcare Service,Outer Regional,14,Public acute group D,Yes,Yes,No,No,Yes,Block-funded hospital,03 5558 6000,21 Hospital Road,Timboon,3268
H0250,Terang & Mortlake Health Service [Terang],Hospital,-38.239388,142.902119,Public,Open,Victoria,Terang and Mortlake Health Service (Terang),Western Victoria,50,50,www.swarh.com.au/tmhs,,,210103350,0,289,Terang and Mortlake Health Service (Terang),Inner Regional,14,Public acute group D,Yes,Yes,No,No,No,Block-funded hospital,03 5592 0222,13 Austin Avenue,Terang,3264
H0264,East Wimmera Health Service [St Arnaud],Hospital,-36.609275,143.246676,Public,Open,Victoria,East Wimmera Health Service,Western Victoria,50,50,www.ewhs.org.au/,,,210202480,0,205,East Wimmera Health Service,Outer Regional,14,Public acute group C,Yes,Yes,No,No,No,Block-funded hospital,03 5477 2100,52 North Western Road,St Arnaud,3478
H0291,Robinvale District Health Services,Hospital,-34.584146,142.781367,Public,Open,Victoria,Robinvale District Health Services,Murray,50,50,www.rdhs.com.au,,,210303130,0,281,Robinvale District Health Services,Outer Regional,14,Public acute group D,Yes,Yes,No,No,Yes,Block-funded hospital,03 5051 8111,128-132 Latje Road,Robinvale,3549
H0380,Craigieburn Health Service,Hospital,-37.596015,144.91928,Public,Open,Victoria,Northern Health (Vic),North Western Melbourne,0,0,,,,210A03670,0,226,Northern Health (Vic),Major Cities,14,Other day procedure hospital,Yes,Yes,No,No,Yes,Activity-based funded hospital,03 8338 3000,350 Craigieburn Road West,Craigieburn,3064
H0421,Monto Hospital,Hospital,-24.866424,151.112501,Public,Open,Queensland,Wide Bay,"Central Queensland, Wide Bay and Sunshine Coast",50,50,www.health.qld.gov.au/services/widebay/wb-monto.asp,,,310000072,0,318,Wide Bay,Outer Regional,14,Public acute group D,Yes,Yes,No,No,Yes,Block-funded hospital,07 4166 9300,35 Flinders Street,Monto,4630
H0486,Home Hill Hospital,Hospital,-19.661764,147.416759,Public,Open,Queensland,Townsville,Northern Queensland,50,50,www.health.qld.gov.au/services/townsville/tville_hhill_hosp.asp,,,310000195,0,313,Townsville,Outer Regional,14,Very small,Yes,Yes,No,No,Yes,Block-funded hospital,07 4790 5700,Tenth Avenue,Home Hill,4806
H0520,Normanton Hospital,Hospital,-17.678739,141.086425,Public,Open,Queensland,North West (Qld),Western Queensland,50,50,www.health.qld.gov.au/services/northwest/nwest_norm_hosp.asp,,,310000247,0,315,North West (Qld),Very remote,14,Public acute group D,Yes,Yes,No,No,Yes,Block-funded hospital,07 4745 2100,Brown Street,Normanton,4890
H0562,Meningie and Districts Memorial Hospital and Health Services,Hospital,-35.693212,139.335565,Public,Open,South Australia,Country Health SA,Country SA,50,50,www.sahealth.sa.gov.au/meningiehospital,,,41HM00151,0,404,Country Health SA,Outer Regional,14,Public acute group D,Yes,Yes,No,No,Yes,Block-funded hospital,08 8575 2777,2 South Terrace,Meningie,5264
H0611,Riverton District Soldiers' Memorial Hospital,Hospital,-34.160353,138.742657,Public,Open,South Australia,Country Health SA,Country SA,50,50,www.sahealth.sa.gov.au/rivertonhospital,,,41WK00214,0,404,Country Health SA,Inner Regional,14,Public acute group D,Yes,Yes,No,No,Yes,Block-funded hospital,08 8847 2300,23 Moorhouse Terrace,Riverton,5412
H0642,Fitzroy Crossing Hospital,Hospital,-18.191439,125.562765,Public,Open,Western Australia,WA Country Health Service,Country WA,50,50,www.health.wa.gov.au/services/detail.cfm?Unit_ID=58,,,510400127,0070290T,503,WA Country Health Service,Very remote,14,Public acute group D,Yes,Yes,No,No,Yes,Block-funded hospital,08 9166 1777,Fallon Road,Fitzroy Crossing,6765
H0706,Donnybrook Hospital,Hospital,-33.576942,115.816547,Public,Open,Western Australia,WA Country Health Service,Country WA,50,50,www.health.wa.gov.au/services/detail.cfm?Unit_ID=49,,,511000271,0070260Y,503,WA Country Health Service,Inner Regional,14,Very small,Yes,Yes,No,No,Yes,Block-funded hospital,08 9780 4333,Bentley Street,Donnybrook,6239
H0100,Dungog Hospital,Hospital,-32.401948,151.746157,Public,Open,New South Wales,Hunter New England,Hunter New England and Central Coast,50,50,,,,1180Q2030,0011190X,109,Hunter New England,Inner Regional,14.7,Public acute group D,Yes,Yes,Yes,No,Yes,Block-funded hospital,02 4995 7000,58 Hospital Road,Dungog,2420
H0043,Kiama Hospital,Hospital,-34.682937,150.850514,Public,Open,New South Wales,Illawarra Shoalhaven,South Eastern NSW,50,50,www.islhd.health.nsw.gov.au/Kiama_Hospital/default.asp,,,1173P2040,0,108,Illawarra Shoalhaven,Inner Regional,15,Mixed subacute and non-acute,Yes,Yes,No,No,Yes,Block-funded hospital,02 4233 1033,Bonaira Street,Kiama,2533
H0064,Neringah Hospital,Hospital,-33.717856,151.114556,Public,Open,New South Wales,Northern Sydney,Northern Sydney,50,50,,,,1176B2090,0010130W,106,Northern Sydney,Major Cities,15,Mixed subacute and non-acute,Yes,Yes,No,No,Yes,Activity-based funded hospital,02 9488 2200,4-12 Neringah Avenue,Wahroonga,2076
H0157,Henty Multi Purpose Service,Hospital,-35.515801,147.031847,Public,Open,New South Wales,Murrumbidgee,Murrumbidgee,50,50,,,,1184M2090,0011430X,114,Murrumbidgee,Inner Regional,15,Very small,Yes,Yes,Yes,No,Yes,Block-funded hospital,02 6929 4999,7 Keighran Street,Henty,2658
H0159,Jerilderie Multi Purpose Service,Hospital,-35.356628,145.720596,Public,Open,New South Wales,Murrumbidgee,Murrumbidgee,50,50,,,,1184M2110,0011500Y,114,Murrumbidgee,Outer Regional,15,Public acute group D,Yes,Yes,Yes,No,Yes,Block-funded hospital,03 5886 1300,33-39 Southey Street,Jerilderie,2716
H0239,Casterton Memorial Hospital,Hospital,-37.589989,141.392283,Public,Open,Victoria,Casterton Memorial Hospital,Western Victoria,50,50,www.swarh.com.au/casterton,,,210102090,0,283,Casterton Memorial Hospital,Outer Regional,15,Public acute group D,Yes,Yes,No,No,Yes,Block-funded hospital,03 5554 2555,63-69 Russell Street,Casterton,3311
H0304,Alpine Health [Myrtleford],Hospital,-36.554525,146.728795,Public,Open,Victoria,Alpine Health (Vic),Murray,50,50,www.alpinehealth.org.au,,,210401881,0,245,Alpine Health (Vic),Inner Regional,15,Public acute group D,Yes,Yes,No,No,Yes,Block-funded hospital,03 5751 9300,30 O'Donnell Avenue,Myrtleford,3736
H0329,Orbost Regional Health,Hospital,-37.701844,148.464957,Public,Open,Victoria,Orbost Regional Health,Gippsland,50,50,,,,210505050,0,261,Orbost Regional Health,Outer Regional,15,Public acute group C,Yes,Yes,No,No,Yes,Block-funded hospital,03 5154 6666,104 Boundary Road,Orbost,3888
H0406,Laidley Hospital,Hospital,-27.632725,152.400015,Public,Open,Queensland,West Moreton,Darling Downs and West Moreton,50,50,www.health.qld.gov.au/services/westmoreton/laidley-hs.asp,,,310000047,0,324,West Moreton,Inner Regional,15,Public acute group D,Yes,Yes,No,No,Yes,Block-funded hospital,07 5466 8100,75 William Street,Laidley,4341
H0424,Murgon Hospital,Hospital,-26.239075,151.950702,Public,Open,Queensland,Darling Downs,Darling Downs and West Moreton,50,50,www.health.qld.gov.au/services/darlingdowns/ddowns-murgon-hs.asp,,,310000075,0,325,Darling Downs,Inner Regional,15,Public acute group D,Yes,Yes,No,No,Yes,Block-funded hospital,07 4169 9600,Coronation Drive,Murgon,4605
H0436,Tara Hospital,Hospital,-27.273674,150.456368,Public,Open,Queensland,Darling Downs,Darling Downs and West Moreton,50,50,www.health.qld.gov.au/services/darlingdowns/ddowns-tara-hs.asp,,,310000101,0,325,Darling Downs,Outer Regional,15,Public acute group D,Yes,Yes,No,No,Yes,Block-funded hospital,07 4678 7900,15 Bilton Street,Tara,4421
H0516,Cloncurry Hospital,Hospital,-20.704166,140.527571,Public,Open,Queensland,North West (Qld),Western Queensland,50,50,www.health.qld.gov.au/services/northwest/nwest_clonc_hosp.asp,,,310000243,0,315,North West (Qld),Remote,15,Public acute group D,Yes,Yes,No,No,Yes,Block-funded hospital,07 4742 4500,1 Musgrave Street,Cloncurry,4824
H0552,Ceduna District Health Service,Hospital,-32.119099,133.672317,Public,Open,South Australia,Country Health SA,Country SA,50,50,www.sahealth.sa.gov.au/cedunahospital,"Ear, nose and throat surgery,General surgery,Orthopaedic surgery,","Adenoidectomy,Arthroplasty - revision of,Arthroscopy,Carpal tunnel release,Circumcision,Epididymal cyst - removal of,Haemorrhoidectomy,Herniorrhaphy,Inguinal herniotomy/herniorrhaphy,Myringotomy,Myringotomy (without insertion of grommets),Skin lesion - excision of,Tonsillectomy (with or without adenoidectomy),",41EY00169,0,404,Country Health SA,Very remote,15,Public acute group C,Yes,Yes,No,Yes,Yes,Block-funded hospital,08 8626 2150,3 Eyre Highway,Ceduna,5690
H0555,Tumby Bay Hospital and Health Services,Hospital,-34.372292,136.103932,Public,Open,South Australia,Country Health SA,Country SA,50,50,www.sahealth.sa.gov.au/tumbybayhospital,,,41EY00241,0,404,Country Health SA,Remote,15,Public acute group D,Yes,Yes,No,No,Yes,Block-funded hospital,08 8688 2007,8-11 Esplanade,Tumby Bay,5605
H0557,Kangaroo Island Health Service,Hospital,-35.652693,137.641289,Public,Open,South Australia,Country Health SA,Country SA,50,50,www.sahealth.sa.gov.au/KangarooIslandHospital,"General surgery,Gynaecology,Orthopaedic surgery,Urology,","Arthroscopy,Carpal tunnel release,Chalazion - excision of,Cholecystectomy (open/laparoscopic),Cystoscopy,Ganglion - excision of,Hydrocele - repair of,Hysterectomy (abdominal/vaginal/laparoscopic),Hysteroscopy, dilatation and curettage,Inguinal herniotomy/herniorrhaphy,Skin lesion - excision of,Trigger finger/thumb release,Vaginal repair - anterior/posterior,",41HM00112,0,404,Country Health SA,Remote,15,Public acute group C,Yes,Yes,No,Yes,Yes,Block-funded hospital,08 8553 4200,3 to 7 The Esplanade,Kingscote,5223
H0578,Coober Pedy Hospital and Health Service,Hospital,-29.004893,134.762066,Public,Open,South Australia,Country Health SA,Country SA,50,50,www.sahealth.sa.gov.au/cooberpedyhospital,,,41NF00085,0,404,Country Health SA,Very remote,15,Public acute group D,Yes,Yes,No,No,Yes,Block-funded hospital,08 8672 5009,Lot 89 Hospital Road,Coober Pedy,5723
H0225,Thomas Walker Hospital,Hospital,-33.832336,151.097897,Public,Open,New South Wales,Sydney,Central and Eastern Sydney,50,50,,,,1470A2360,0,102,Sydney,Major Cities,15.2,Psychiatric,Yes,Yes,No,No,No,Block-funded hospital,02 9736 2288,Hospital Road,Concord West,2138
H0093,Wee Waa Hospital,Hospital,-30.225439,149.448287,Public,Open,New South Wales,Hunter New England,Hunter New England and Central Coast,50,50,,,,1180J2210,0012330T,109,Hunter New England,Outer Regional,15.4,Public acute group D,Yes,Yes,Yes,No,Yes,Block-funded hospital,02 6795 0400,60 Alma Street,Wee Waa,2388
H0220,Tullamore Multi Purpose Health Service,Hospital,-32.635114,147.568997,Public,Open,New South Wales,Western NSW,Western NSW,50,50,,,,1185L2240,0012170T,112,Western NSW,Outer Regional,15.9,Very small,Yes,Yes,Yes,No,Yes,Block-funded hospital,02 6892 5003,1 Hinkler Street,Tullamore,2874
H0268,Edenhope and District Memorial Hospital,Hospital,-37.035323,141.288829,Public,Open,Victoria,Edenhope and District Memorial Hospital,Western Victoria,50,50,www.edmh.org.au,,,210203240,0,278,Edenhope and District Memorial Hospital,Outer Regional,16,Public acute group D,Yes,Yes,No,No,Yes,Block-funded hospital,03 5585 9800,128-134 Elizabeth Street,Edenhope,3318
H0328,South Gippsland Hospital [Foster],Hospital,-38.658319,146.207031,Public,Open,Victoria,South Gippsland Hospital (Foster),Gippsland,50,50,,,,210504240,0,255,South Gippsland Hospital (Foster),Inner Regional,16,Public acute group C,Yes,Yes,No,No,Yes,Block-funded hospital,03 5683 9777,87 Station Road,Foster,3960
H0341,Yarra Ranges Health,Hospital,-37.756319,145.351204,Public,Open,Victoria,Eastern Health (Vic),Eastern Melbourne,50,50,www.iechs.com.au,,,210803690,0,234,Eastern Health (Vic),Major Cities,16,Other day procedure hospital,Yes,Yes,No,No,Yes,Activity-based funded hospital,1300 342 255,25 Market Street,Lilydale,3140
H0370,Orygen Inpatient Unit,Hospital,-37.791926,144.886617,Public,Open,Victoria,Melbourne Health,North Western Melbourne,50,50,www.oyh.org.au,,,210A01332,0,225,Melbourne Health,Major Cities,16,Psychiatric,Yes,Yes,No,No,No,Activity-based funded hospital,03 8345 7550,35 Mavis Street,Footscray,3011
H0427,Chinchilla Hospital,Hospital,-26.741337,150.634939,Public,Open,Queensland,Darling Downs,Darling Downs and West Moreton,50,50,www.health.qld.gov.au/services/darlingdowns/ddowns-chinchilla-hs.asp,"General surgery,Gynaecology,","Anal fissure - repair of,Bartholin's abscess drainage,Cone biopsy,Herniorrhaphy,Inguinal herniotomy/herniorrhaphy,Large loop excision of the transformation zone cervix (LLETZ),Skin lesion - excision of,Toenail surgery,",310000091,0,325,Darling Downs,Outer Regional,16,Public acute group C,Yes,Yes,No,Yes,Yes,Block-funded hospital,07 4662 8888,Slessar Street,Chinchilla,4413
H0480,Sarina Hospital,Hospital,-21.421151,149.210268,Public,Open,Queensland,Mackay,Northern Queensland,50,50,www.health.qld.gov.au/services/mackay/sarina_hphcc.asp,,,310000175,0,314,Mackay,Outer Regional,16,Public acute group D,Yes,Yes,No,No,Yes,Block-funded hospital,07 4943 8777,1 Hospital Street,Sarina,4737
H0493,Bamaga Hospital,Hospital,-10.893996,142.385131,Public,Open,Queensland,Torres and Cape,Northern Queensland,50,50,www.health.qld.gov.au/services/torresstrait-np/torres_bamaga_hosp.asp,,,310000213,0,327,Torres and Cape,Very remote,16,Public acute group D,Yes,Yes,No,No,Yes,Block-funded hospital,07 4069 3166,Sagaukaz Street,Bamaga,4876
H1047,Ursula Frayne Centre,Hospital,-37.791148,144.886747,Public,Open,Victoria,Mercy Public Hospital Inc. (Vic),North Western Melbourne,0,0,,,,210A01321,0,267,Mercy Public Hospital Inc. (Vic),Major Cities,16,Psychiatric,Yes,Yes,No,No,No,Activity-based funded hospital,,,,
H0187,Coonabarabran Health Service,Hospital,-31.274791,149.284779,Public,Open,New South Wales,Western NSW,Western NSW,50,50,,"General surgery,",,1185K2060,0011020T,112,Western NSW,Outer Regional,16.3,Public acute group D,Yes,Yes,Yes,Yes,Yes,Block-funded hospital,02 6826 6100,101-103 Edwards Street,Coonabarabran,2357
H0666,Merredin Hospital,Hospital,-31.485204,118.276491,Public,Open,Western Australia,WA Country Health Service,Country WA,50,50,www.health.wa.gov.au/services/detail.cfm?Unit_ID=118,,,510700235,0070510X,503,WA Country Health Service,Outer Regional,16.7,Public acute group D,Yes,Yes,No,No,Yes,Block-funded hospital,,,,
H0090,Vegetable Creek Multi Purpose Service Emmaville,Hospital,-29.450547,151.599204,Public,Open,New South Wales,Hunter New England,Hunter New England and Central Coast,50,50,,,,1180J2180,0012240W,109,Hunter New England,Outer Regional,17,Very small,Yes,Yes,Yes,No,Yes,Block-funded hospital,02 6734 7900,13-33 Glen Innes Road,Emmaville,2371
H0105,Denman Multi Purpose Service,Hospital,-32.389483,150.684453,Public,Open,New South Wales,Hunter New England,Hunter New England and Central Coast,50,50,,,,1180Q2100,0010810T,109,Hunter New England,Inner Regional,17,Very small,Yes,Yes,Yes,No,Yes,Block-funded hospital,02 6547 3999,51-53 Ogilvie Street,Denman,2328
H0335,Caritas Christi Hospice [Kew],Hospital,-37.804706,145.015557,Public,Open,Victoria,St Vincent's Hospital (Melbourne) Limited,Eastern Melbourne,50,50,www.svhm.org.au/home/patients-and-visitors/campus-information/caritas-christi-campus,,,210802080,0,262,St Vincent's Hospital (Melbourne) Limited,Major Cities,17,Mixed subacute and non-acute,Yes,Yes,No,No,No,Activity-based funded hospital,03 9231 5000,104 Studley Park Road,Kew,3101
H0412,Cherbourg Hospital,Hospital,-26.291519,151.956324,Public,Open,Queensland,Darling Downs,Darling Downs and West Moreton,50,50,www.health.qld.gov.au/services/darlingdowns/ddowns-cherbourg-hs.asp,,,310000063,0,325,Darling Downs,Inner Regional,17,Public acute group C,Yes,Yes,No,No,Yes,Block-funded hospital,07 4169 8800,Fisher Street,Cherbourg,4605
H0556,Gumeracha District Soldiers' Memorial Hospital,Hospital,-34.826269,138.881575,Public,Open,South Australia,Country Health SA,Country SA,50,50,www.sahealth.sa.gov.au/gumerachahospital,,,41HM00106,0,404,Country Health SA,Inner Regional,17,Public acute group D,Yes,Yes,No,No,Yes,Block-funded hospital,08 8209 9200,2 Albert Street,Gumeracha,5233
H0591,Renmark Paringa District Hospital,Hospital,-34.164836,140.745205,Public,Open,South Australia,Country Health SA,Country SA,50,50,www.sahealth.sa.gov.au/renmarkhospital,"Ear, nose and throat surgery,General surgery,","Myringoplasty/tympanoplasty,Myringotomy,Myringotomy (without insertion of grommets),Tonsillectomy (with or without adenoidectomy),",41RI00211,0,404,Country Health SA,Outer Regional,17,Public acute group C,Yes,Yes,No,Yes,Yes,Block-funded hospital,08 8580 4100,Ral Ral Avenue,Renmark,5341
H0627,"Next Step Drug And Alcohol Services, East Perth",Hospital,-31.953405,115.869171,Public,Open,Western Australia,East Metropolitan Health Service (WA),Perth North,50,50,,,,510200459,0,504,0,Major Cities,17,Drug and alcohol hospital,Yes,Yes,No,No,No,Block-funded hospital,08 9219 1919,32 Moore Street,East Perth,6004
H0698,Plantagenet Hospital,Hospital,-34.626092,117.654561,Public,Open,Western Australia,WA Country Health Service,Country WA,50,50,www.health.wa.gov.au/services/detail.cfm?Unit_ID=151,,,510900429,0070550K,503,WA Country Health Service,Outer Regional,17.7,Public acute group D,Yes,Yes,No,No,Yes,Block-funded hospital,08 9892 1222,Langton Road,Mount Barker,6324
H0110,"Wilson Memorial Community Hospital, Murrurundi",Hospital,-31.770408,150.834764,Public,Open,New South Wales,Hunter New England,Hunter New England and Central Coast,50,50,,,,1180Q2190,0012390B,109,Hunter New England,Outer Regional,17.8,Public acute group D,Yes,Yes,Yes,No,Yes,Block-funded hospital,02 6546 9000,59 O'Connell Street,Murrurundi,2338
H0213,Oberon Multi Purpose Service,Hospital,-33.705249,149.853596,Public,Open,New South Wales,Western NSW,Western NSW,50,50,,,,1185L2150,0011910B,112,Western NSW,Inner Regional,17.9,Public acute group D,Yes,Yes,Yes,No,Yes,Block-funded hospital,02 6336 7200,67-73 North Street,Oberon,2787
H0137,Bombala Multi Purpose Service,Hospital,-36.917513,149.235372,Public,Open,New South Wales,Southern NSW,South Eastern NSW,50,50,,,,1183N2030,0010750K,113,Southern NSW,Outer Regional,18,Public acute group D,Yes,Yes,Yes,No,Yes,Block-funded hospital,02 6458 5777,126-128 Wellington Street,Bombala,2632
H0140,Crookwell District Hospital,Hospital,-34.464222,149.467427,Public,Open,New South Wales,Southern NSW,South Eastern NSW,50,50,,,,1183N2070,0011100T,113,Southern NSW,Inner Regional,18,Public acute group D,Yes,Yes,Yes,No,Yes,Block-funded hospital,,,,
H0164,Boorowa Multi Purpose Service,Hospital,-34.442822,148.727073,Public,Open,New South Wales,Murrumbidgee,Murrumbidgee,50,50,,,,1184N2040,0010770H,114,Murrumbidgee,Inner Regional,18,Public acute group D,Yes,Yes,Yes,No,Yes,Block-funded hospital,02 6385 3004,62-80 Dry Street,Boorowa,2586
H0188,Baradine Multi Purpose Service,Hospital,-30.945316,149.066189,Public,Open,New South Wales,Western NSW,Western NSW,50,50,,,,1185K2070,0011030L,112,Western NSW,Remote,18,Public acute group D,Yes,Yes,Yes,No,Yes,Block-funded hospital,02 6843 4100,5-9 Macquarie Street,Baradine,2396
H0269,Melton Health,Hospital,-37.686449,144.558284,Public,Open,Victoria,Djerriwarrh Health Service (Vic),North Western Melbourne,50,50,,,,210A03680,0,208,Djerriwarrh Health Service (Vic),Major Cities,18,Unpeered,Yes,Yes,No,No,Yes,Activity-based funded hospital,03 9747 7600,195-209 Barries Road,Melton West,3337
H0285,Kerang District Health,Hospital,-35.724287,143.916563,Public,Open,Victoria,Kerang District Health,Murray,50,50,,,,210302240,0,215,Kerang District Health,Outer Regional,18,Public acute group C,Yes,Yes,No,No,Yes,Block-funded hospital,03 5450 9200,13 Burgoyne Street,Kerang,3579
H0310,Alexandra District Hospital,Hospital,-37.195065,145.716143,Public,Open,Victoria,Alexandra District Hospital,Murray,50,50,,,,210403010,0,233,Alexandra District Hospital,Inner Regional,18,Public acute group C,Yes,Yes,No,No,Yes,Block-funded hospital,,,,
H0467,Blackall Hospital,Hospital,-24.422705,145.449349,Public,Open,Queensland,Central West (Qld),Western Queensland,50,50,www.health.qld.gov.au/services/centralwest/cwest_blackall_hosp.asp,,,310000153,0,317,Central West (Qld),Very remote,18,Public acute group D,Yes,Yes,No,No,Yes,Block-funded hospital,07 4650 7700,Shamrock Street,Blackall,4472
H0705,Margaret River Hospital,Hospital,-33.952162,115.071229,Public,Open,Western Australia,WA Country Health Service,Country WA,50,50,www.health.wa.gov.au/services/detail.cfm?Unit_ID=114,"General surgery,Other surgery,","Skin lesion - excision of,",511000233,0070490H,503,WA Country Health Service,Inner Regional,18,Public acute group C,Yes,Yes,No,Yes,Yes,Block-funded hospital,08 9757 0400,Farrelly Street,Margaret River,6285
H0025,Karitane,Hospital,-33.879777,150.965763,Public,Open,New South Wales,South Western Sydney,South Western Sydney,50,50,www.karitane.com.au/,,,1171C2030,0010150L,103,South Western Sydney,Major Cities,18.4,Early parenting centres,Yes,Yes,No,No,Yes,Block-funded hospital,,,,
H0405,Kilcoy Hospital,Hospital,-26.941009,152.561495,Public,Open,Queensland,Metro North (Qld),Brisbane North,50,50,www.health.qld.gov.au/services/metronorth/metronorth_kilcoy_hosp.asp,,,310000046,0,320,Metro North (Qld),Inner Regional,19,Public acute group D,Yes,Yes,No,No,Yes,Block-funded hospital,07 5422 4411,19 Brown Street,Kilcoy,4515
H0443,Cunnamulla Hospital,Hospital,-28.071658,145.690405,Public,Open,Queensland,South West (Qld),Western Queensland,50,50,www.health.qld.gov.au/services/southwest/swest_cunna_hosp.asp,,,310000113,0,326,South West (Qld),Very remote,19,Public acute group D,Yes,Yes,No,No,Yes,Block-funded hospital,07 4655 8100,56 Wicks Street,Cunnamulla,4490
H0549,Cummins and District Memorial Hospital,Hospital,-34.264155,135.73316,Public,Open,South Australia,Country Health SA,Country SA,0,0,,,,41EY00094,0,404,Country Health SA,Remote,19,Public acute group D,Yes,Yes,No,No,Yes,Block-funded hospital,08 8688 2629,19-21 Tumby Bay Road,Cummins,5631
H0554,Streaky Bay Hospital,Hospital,-32.792776,134.217524,Public,Open,South Australia,Country Health SA,Country SA,50,50,www.sahealth.sa.gov.au/streakybayhospital,,,41EY00232,0,404,Country Health SA,Remote,19,Public acute group D,Yes,Yes,No,No,Yes,Block-funded hospital,08 8626 1009,1 Flinders Drive,Streaky Bay,5680
H0078,Boggabri Multi Purpose Service,Hospital,-30.711502,150.040014,Public,Open,New South Wales,Hunter New England,Hunter New England and Central Coast,50,50,,,,1180J2040,0010740L,109,Hunter New England,Outer Regional,19.6,Very small,Yes,Yes,Yes,No,Yes,Block-funded hospital,02 6749 7000,3 Wee Waa Street,Boggabri,2382
H0199,Walgett Multipurpose Service,Hospital,-30.030646,148.115959,Public,Open,New South Wales,Western NSW,Western NSW,50,50,,,,1185K2200,0012280J,112,Western NSW,Remote,19.7,Public acute group D,Yes,Yes,Yes,No,Yes,Block-funded hospital,02 6828 6000,141 Fox Street,Walgett,2832
H0087,Quirindi Hospital,Hospital,-31.500345,150.676621,Public,Open,New South Wales,Hunter New England,Hunter New England and Central Coast,50,50,,,,1180J2150,0011990J,109,Hunter New England,Outer Regional,20,Public acute group D,Yes,Yes,Yes,No,Yes,Block-funded hospital,02 6746 0200,Nowland Street,Quirindi,2343
H0183,Brewarrina Multi Purpose Service,Hospital,-29.961627,146.863796,Public,Open,New South Wales,Western NSW,Western NSW,50,50,,,,1185K2020,0010820L,112,Western NSW,Very remote,20,Public acute group D,Yes,Yes,Yes,No,Yes,Block-funded hospital,02 6830 5000,56 Doyle Street,Brewarrina,2839
H0198,Trangie Multi Purpose Service,Hospital,-32.030813,147.976355,Public,Open,New South Wales,Western NSW,Western NSW,50,50,,,,1185K2190,0012160W,112,Western NSW,Outer Regional,20,Very small,Yes,Yes,Yes,No,Yes,Block-funded hospital,02 6880 8200,28 Harris Street,Trangie,2823
H0381,The Royal Dental Hospital of Melbourne,Hospital,-37.799299,144.964529,Public,Open,Victoria,Unknown,North Western Melbourne,50,50,www.dhsv.org.au,,,210A05110,0,998,Unknown,Major Cities,20,Unpeered,Yes,Yes,No,No,No,Funding not designated/Unknown,,,,
H0403,Esk Hospital,Hospital,-27.240398,152.418179,Public,Open,Queensland,West Moreton,Darling Downs and West Moreton,50,50,www.health.qld.gov.au/services/westmoreton/esk-hs.asp,,,310000044,0,324,West Moreton,Inner Regional,20,Public acute group D,Yes,Yes,No,No,Yes,Block-funded hospital,07 5424 4600,30 Highland Street,Esk,4312
H0507,Tully Hospital,Hospital,-17.927624,145.924146,Public,Open,Queensland,Cairns and Hinterland,Northern Queensland,50,50,www.health.qld.gov.au/services/cairns-hinterland/cairns_tully_hosp.asp,,,310000227,0,312,Cairns and Hinterland,Outer Regional,20,Public acute group C,Yes,Yes,No,No,Yes,Block-funded hospital,07 4068 4144,Bryant Street,Tully,4854
H0508,Weipa Hospital,Hospital,-12.623419,141.881179,Public,Open,Queensland,Torres and Cape,Northern Queensland,50,50,www.health.qld.gov.au/services/capeyork/capeyork_weipa_hosp.asp,"Ear, nose and throat surgery,General surgery,Ophthalmology,","Adenoidectomy,Cataract extraction (with or without intra-ocular lens insertion),Herniorrhaphy,Myringoplasty/tympanoplasty,Myringotomy,Myringotomy (without insertion of grommets),Pterygium - excision of,Skin lesion - excision of,",310000228,0,327,Torres and Cape,Very remote,20,Public acute group C,Yes,Yes,No,Yes,Yes,Block-funded hospital,07 4082 3900,Lot 407 John Evans Drive,Weipa,4874
H0547,Cleve District Hospital and Aged Care,Hospital,-33.697779,136.494162,Public,Open,South Australia,Country Health SA,Country SA,50,50,www.sahealth.sa.gov.au/clevehospital,,,41EY00082,0,404,Country Health SA,Remote,20,Public acute group D,Yes,Yes,No,No,Yes,Block-funded hospital,08 8628 2665,North Terrace,Cleve,5640
H0575,Port Broughton and District Hospital and Health Service,Hospital,-33.601287,137.934379,Public,Open,South Australia,Country Health SA,Country SA,50,50,www.sahealth.sa.gov.au/ptbroughtonhospital,,,41MN00199,0,404,Country Health SA,Outer Regional,20,Public acute group D,Yes,Yes,No,No,Yes,Block-funded hospital,08 8635 2200,Bay Street,Port Broughton,5522
H0588,Barmera Health Service,Hospital,-34.249146,140.471706,Public,Open,South Australia,Country Health SA,Country SA,50,50,www.sahealth.sa.gov.au/barmerahospital,,,41RI00055,0,404,Country Health SA,Outer Regional,20,Public acute group D,Yes,Yes,No,No,Yes,Block-funded hospital,08 8588 0400,Hawdon Street,Barmera,5345
H0707,Harvey Hospital,Hospital,-33.077554,115.896749,Public,Open,Western Australia,WA Country Health Service,Country WA,50,50,www.health.wa.gov.au/services/detail.cfm?Unit_ID=75,,,511000412,0070350X,503,WA Country Health Service,Inner Regional,20,Public acute group D,Yes,Yes,No,No,Yes,Block-funded hospital,08 9782 2222,42 Hayward Street,Harvey,6220
H0177,Narrandera Hospital,Hospital,-34.743181,146.547661,Public,Open,New South Wales,Murrumbidgee,Murrumbidgee,50,50,,"General surgery,Other surgery,","Carpal tunnel release,Haemorrhoidectomy,Herniorrhaphy,Inguinal herniotomy/herniorrhaphy,Skin lesion - excision of,",1184R2150,0011840A,114,Murrumbidgee,Outer Regional,20.4,Public acute group C,Yes,Yes,Yes,Yes,Yes,Block-funded hospital,02 6951 0200,54 Adams Street,Narrandera,2700
H0077,Bingara Multi Purpose Service,Hospital,-29.864055,150.579235,Public,Open,New South Wales,Hunter New England,Hunter New England and Central Coast,50,50,,,,1180J2030,0010710X,109,Hunter New England,Outer Regional,20.9,Public acute group D,Yes,Yes,Yes,No,Yes,Block-funded hospital,02 6728 0100,Keera Street,Bingara,2404
H0260,West Wimmera Health Service [Nhill],Hospital,-36.334003,141.655579,Public,Open,Victoria,West Wimmera Health Service,Western Victoria,50,50,www.wwhs.net.au/,,,210202371,0,277,West Wimmera Health Service,Outer Regional,21,Public acute group C,Yes,Yes,No,No,Yes,Block-funded hospital,03 5391 4222,45 Nelson Street,Nhill,3418
H0270,Daylesford District Hospital,Hospital,-37.337365,144.145774,Public,Open,Victoria,Hepburn Health Service,Western Victoria,50,50,,,,210204161,0,206,Hepburn Health Service,Inner Regional,21,Public acute group D,Yes,Yes,No,No,No,Block-funded hospital,03 5321 6500,13 Hospital Street,Daylesford,3460
H0442,Charleville Hospital,Hospital,-26.410455,146.239228,Public,Open,Queensland,South West (Qld),Western Queensland,50,50,www.health.qld.gov.au/services/southwest/swest_cville_hosp.asp,"General surgery,Gynaecology,Other surgery,","Bartholin's cyst - removal of,Cone biopsy,Haemorrhoidectomy,Herniorrhaphy,Hysterectomy (abdominal/vaginal/laparoscopic),Hysteroscopy, dilatation and curettage,Inguinal herniotomy/herniorrhaphy,Laparoscopy,Large loop excision of the transformation zone cervix (LLETZ),Skin lesion - excision of,Vaginal repair - anterior/posterior,",310000112,0,326,South West (Qld),Very remote,21,Public acute group C,Yes,Yes,No,Yes,Yes,Block-funded hospital,07 4650 5000,72 King Street,Charleville,4470
H0564,Mount Pleasant District Hospital,Hospital,-34.773855,139.054212,Public,Open,South Australia,Country Health SA,Country SA,50,50,www.sahealth.sa.gov.au/MtPleasanthospital,,,41HM00166,0,404,Country Health SA,Inner Regional,21,Public acute group D,Yes,Yes,No,No,Yes,Block-funded hospital,08 8568 0000,28 Hospital Road,Mount Pleasant,5235
H0615,Northern Yorke Peninsula Health Service (Wallaroo),Hospital,-33.927738,137.636783,Public,Open,South Australia,Country Health SA,Country SA,50,50,www.sahealth.sa.gov.au/wallaroohospital,"Ear, nose and throat surgery,General surgery,Gynaecology,Ophthalmology,Orthopaedic surgery,Plastic surgery,Urology,","Acromioplasty/arthroscopy shoulder/sub acromial decompression,Anal fissure - repair of,Anterior cruciate ligament reconstruction,Arthroscopy,Bartholin's cyst - removal of,Bladder neck incision,Carpal tunnel release,Cataract extraction (with or without intra-ocular lens insertion),Cholecystectomy (open/laparoscopic),Circumcision,Cystectomy,Cystoscopy,Dupytren's contracture release,Ectropion - correction of,Endometrial ablation,Epididymal cyst - removal of,Female sterilisation,Ganglion - excision of,Haemorrhoidectomy,Herniorrhaphy,Hysterectomy (abdominal/vaginal/laparoscopic),Hysteroscopy, dilatation and curettage,Inguinal herniotomy/herniorrhaphy,Laparoscopy,Large loop excision of the transformation zone cervix (LLETZ),Prostate biopsy,Prostatectomy (transurethral or open),Rotator cuff - repair of,Salpingo-oophorectomy/oophorectomy/ovarian cystectomy,Septoplasty,Shoulder reconstruction,Skin lesion - excision of,Tendon release,Toenail surgery,Trigger finger/thumb release,Vaginal repair - anterior/posterior,",41WK00247,0,404,Country Health SA,Outer Regional,21,Public acute group C,Yes,Yes,No,Yes,Yes,Block-funded hospital,08 8823 0200,1 Ernest Terrace,Wallaroo,5556
H0144,Pambula Hospital,Hospital,-36.926316,149.879232,Public,Open,New South Wales,Southern NSW,South Eastern NSW,50,50,,,,1183N2140,0011930Y,113,Southern NSW,Outer Regional,21.1,Public acute group D,Yes,Yes,Yes,No,Yes,Block-funded hospital,02 6495 6002,Merimbola Street,Pambula,2549
H0081,Guyra Multi Purpose Service,Hospital,-30.213889,151.679112,Public,Open,New South Wales,Hunter New England,Hunter New England and Central Coast,50,50,,,,1180J2070,0011380L,109,Hunter New England,Outer Regional,21.7,Public acute group D,Yes,Yes,Yes,No,Yes,Block-funded hospital,02 6738 4000,44-48 Sole Street,Guyra,2365
H0711,Warren Hospital,Hospital,-34.240969,116.154112,Public,Open,Western Australia,WA Country Health Service,Country WA,50,50,www.health.wa.gov.au/services/detail.cfm?Unit_ID=184,"General surgery,Gynaecology,Other surgery,","Anal fissure - repair of,Carpal tunnel release,Female sterilisation,Ganglion - excision of,Haemorrhoidectomy,Herniorrhaphy,Inguinal herniotomy/herniorrhaphy,Pilonidal sinus surgery,Skin lesion - excision of,Toenail surgery,Vaginal repair - anterior/posterior,",511000433,0070470K,503,WA Country Health Service,Outer Regional,21.7,Public acute group C,Yes,Yes,No,Yes,Yes,Block-funded hospital,08 9777 0300,Hospital Avenue,Manjimup,6258
H0207,Condobolin Health Service,Hospital,-33.082332,147.154161,Public,Open,New South Wales,Western NSW,Western NSW,50,50,,,,1185L2050,0010990W,112,Western NSW,Outer Regional,21.9,Public acute group D,Yes,Yes,Yes,No,Yes,Block-funded hospital,02 6890 1500,Madline Street,Condobolin,2877
H0073,Long Jetty Health Care Centre,Hospital,-33.369012,151.468538,Public,Open,New South Wales,Central Coast,Hunter New England and Central Coast,50,50,,,,1177B2040,0012680T,107,Central Coast,Major Cities,22,Mixed subacute and non-acute,Yes,Yes,No,No,Yes,Activity-based funded hospital,02 4336 7700,Wyong Road,Killarney Vale,2261
H0076,Barraba Multi Purpose Service,Hospital,-30.382482,150.605778,Public,Open,New South Wales,Hunter New England,Hunter New England and Central Coast,50,50,,,,1180J2020,0010620Y,109,Hunter New England,Outer Regional,22,Public acute group D,Yes,Yes,Yes,No,Yes,Block-funded hospital,02 6782 2500,Edward Street,Barraba,2347
H0126,Urbenville Multi Purpose Service,Hospital,-28.471511,152.543029,Public,Open,New South Wales,Northern NSW,North Coast,50,50,,,,1181H2240,0012230X,111,Northern NSW,Outer Regional,22,Very small,Yes,Yes,Yes,No,Yes,Block-funded hospital,02 6634 1600,45 Beaury Street,Urbenville,2475
H0149,Lake Cargelligo Multi Purpose Service,Hospital,-33.292027,146.374304,Public,Open,New South Wales,Murrumbidgee,Murrumbidgee,50,50,,,,1184L2120,0011560J,114,Murrumbidgee,Remote,22,Public acute group D,Yes,Yes,Yes,No,Yes,Block-funded hospital,02 6898 1200,Uabba Street,Lake Cargelligo,2672
H0150,Wyalong Hospital,Hospital,-33.916373,147.196483,Public,Open,New South Wales,Murrumbidgee,Murrumbidgee,50,50,,,,1184L2260,0012410T,114,Murrumbidgee,Outer Regional,22,Public acute group D,Yes,Yes,Yes,No,Yes,Block-funded hospital,02 6979 0000,70 Ungarie Road,West Wyalong,2671
H0161,Urana Multi Purpose Service,Hospital,-35.325419,146.267316,Public,Open,New South Wales,Murrumbidgee,Murrumbidgee,50,50,,,,1184M2130,0011620L,114,Murrumbidgee,Outer Regional,22,Very small,Yes,Yes,Yes,No,Yes,Block-funded hospital,02 6920 8106,127-129 Princess Street,Urana,2645
H0181,Cootamundra Hospital,Hospital,-34.634386,148.012796,Public,Open,New South Wales,Murrumbidgee,Murrumbidgee,50,50,,"General surgery,","Haemorrhoidectomy,Herniorrhaphy,Pilonidal sinus surgery,Skin lesion - excision of,",1184R2210,0011070F,114,Murrumbidgee,Inner Regional,22,Public acute group C,Yes,Yes,Yes,Yes,Yes,Block-funded hospital,02 6942 0444,120 Mackay Street,Cootamundra,2590
H0311,Numurkah & District Health Service,Hospital,-36.100001,145.443695,Public,Open,Victoria,Numurkah and District Health Service,Murray,50,50,,,,210403030,0,237,Numurkah and District Health Service,Inner Regional,22,Public acute group D,Yes,Yes,No,No,Yes,Block-funded hospital,03 5862 0555,2 Katamatite Road,Numurkah,3636
H0321,Yarram & District Health Service,Hospital,-38.556975,146.678316,Public,Open,Victoria,Yarram and District Health Service,Gippsland,50,50,www.gha.net.au/ydhs,,,210501770,0,257,Yarram and District Health Service,Inner Regional,22,Public acute group D,Yes,Yes,No,No,Yes,Block-funded hospital,03 5182 0222,85-91 Commercial Road,Yarram,3971
H0349,Cranbourne Integrated Care Centre,Hospital,-38.113312,145.280832,Public,Open,Victoria,Monash Health,South Eastern Melbourne,50,50,,"General surgery,Gynaecology,Ophthalmology,","Anal fissure - repair of,Blepharoplasty,Carpal tunnel release,Cataract extraction (with or without intra-ocular lens insertion),Corneal graft,Curettage and evacuation of uterus,Ectropion - correction of,Endometrial ablation,Examination of eye under anaesthesia,Female sterilisation,Haemorrhoidectomy,Herniorrhaphy,Hysteroscopy, dilatation and curettage,Laparoscopy,Nerve decompression,Procedure for strabismus (squint repair),Pterygium - excision of,Salpingo-oophorectomy/oophorectomy/ovarian cystectomy,Skin lesion - excision of,Toenail surgery,Trabeculectomy,Vitrectomy (including buckling/cryotherapy),",210902112,0,269,Monash Health,Major Cities,22,Other day procedure hospital,Yes,Yes,No,Yes,Yes,Activity-based funded hospital,03 5990 6789,140-154 Sladen Street,Cranbourne,3977
H0377,Tweddle Child & Family Health Centre [Footscray],Hospital,-37.797407,144.887421,Public,Open,Victoria,Not stated/inadequately described,North Western Melbourne,50,50,,,,210A01900,0,999,Not stated/inadequately described,Major Cities,22,Early parenting centres,Yes,Yes,No,No,No,Funding not designated/Unknown,03 9689 1577,53 Adelaide Street,Footscray,3011
